name,building,county,Nearest_Street,latitude,longitude,Building_Sq_Ft,Roof_Sq_Ft
NorthPark Center,retail,"Dallas County, Texas",North Central Expressway,32.868392671551504,-96.7734996,1219856.7127600124,792906.86
Industrial on Lance Drive,industrial,"Dallas County, Texas",Lance Drive,32.717253578622284,-97.03051183,1206588.614563642,784282.6
Commercial on North Central Expressway,commercial,"Dallas County, Texas",North Central Expressway,32.97963631,-96.71573619,55279.42770110503,35931.63
Unbridled Living of Dallas,commercial,"Dallas County, Texas",Coit Road,32.916451699751896,-96.77031007,115102.88998099344,74816.88
Office on Hillcrest Road,office,"Dallas County, Texas",Hillcrest Road,32.92348512703183,-96.78524979,56623.911896393445,36805.54
Commercial on River Bend Drive,commercial,"Dallas County, Texas",River Bend Drive,32.81739806484384,-96.86464146,49878.46556301347,32421.0
Commercial on Empire Central Drive,commercial,"Dallas County, Texas",Empire Central Drive,32.82558068534255,-96.86589923,41797.77709083695,27168.56
Industrial on Joe Field Road,industrial,"Dallas County, Texas",Joe Field Road,32.891586522314164,-96.90704528,157702.09362277616,102506.36
Warehouse on Maybank Drive,warehouse,"Dallas County, Texas",Maybank Drive,32.86798733245903,-96.88616042,54830.12136630043,35639.58
Warehouse on Denton Drive,warehouse,"Dallas County, Texas",Denton Drive,32.87675184396468,-96.88338383,225501.6964540892,146576.1
Commercial on East 10th Street,commercial,"Dallas County, Texas",East 10th Street,32.74541149637884,-96.82197242,78244.09340519914,50858.66
Commercial on Cockrell Avenue,commercial,"Dallas County, Texas",Cockrell Avenue,32.76041010412609,-96.7852623,142518.94322100392,92637.31
Commercial on Singleton Boulevard,commercial,"Dallas County, Texas",Singleton Boulevard,32.77811048891544,-96.84729483,27389.675932758262,17803.29
Commercial on Hi Line Drive,commercial,"Dallas County, Texas",Hi Line Drive,32.79538870826822,-96.82032425,40812.62967339042,26528.21
The International,commercial,"Dallas County, Texas",Turtle Creek Boulevard,32.79266434882347,-96.8265267,174516.56271492672,113435.77
Commercial on Conant Street,commercial,"Dallas County, Texas",Conant Street,32.79979188554051,-96.83759044,57860.38473,37609.25
Commercial on Abrams Road,commercial,"Dallas County, Texas",Abrams Road,32.80318865810432,-96.7541389,42792.09280065548,27814.86
Commercial on Abrams Road,commercial,"Dallas County, Texas",Abrams Road,32.802443083993595,-96.75367256,55739.706323657774,36230.81
Commercial on Abrams Road,commercial,"Dallas County, Texas",Abrams Road,32.853425027587974,-96.75202025,38766.62396056439,25198.31
Commercial on North Westmoreland Road,commercial,"Dallas County, Texas",North Westmoreland Road,32.76466037186907,-96.87127215,39212.56118752609,25488.16
Commercial on East Ann Arbor Avenue,commercial,"Dallas County, Texas",East Ann Arbor Avenue,32.69006683,-96.81647009,60815.32908800373,39529.96
Commercial on East Ann Arbor Avenue,commercial,"Dallas County, Texas",East Ann Arbor Avenue,32.69079111688009,-96.81635212,49583.526348512525,32229.29
Office on Villa Creek Drive,office,"Dallas County, Texas",Villa Creek Drive,32.91231288714998,-96.888326,54566.3014444962,35468.1
Commercial on Marvin D Love Freeway,commercial,"Dallas County, Texas",Marvin D Love Freeway,32.67715346266575,-96.85767502,21828.55273642991,14188.56
Commercial on Kirnwood Drive,commercial,"Dallas County, Texas",Kirnwood Drive,32.642307223572125,-96.87499678,64055.18984071947,41635.87
Commercial on West Virginia Drive,commercial,"Dallas County, Texas",West Virginia Drive,32.650339394984705,-96.87636278,47694.96409491016,31001.73
Commercial on York Drive,commercial,"Dallas County, Texas",York Drive,32.64464016394096,-96.88024476,57349.56640881134,37277.22
Commercial on Scotland Drive,commercial,"Dallas County, Texas",Scotland Drive,32.6430136608444,-96.88025218,53338.02136388285,34669.71
Industrial on South Central Expressway,industrial,"Dallas County, Texas",South Central Expressway,32.70065674995087,-96.74370043,74451.53343,48393.5
Commercial on Forest Lane,commercial,"Dallas County, Texas",Forest Lane,32.90879915997562,-96.86105232,54148.16826965552,35196.31
Commercial on High Dale Drive,commercial,"Dallas County, Texas",High Dale Drive,32.911116594614384,-96.86157026,88094.69525814716,57261.55
Retail on Dunloe Drive,retail,"Dallas County, Texas",Dunloe Drive,32.83603951,-96.67421833,149438.17695626794,97134.82
Commercial on Centerville Road,commercial,"Dallas County, Texas",Centerville Road,32.84370860735287,-96.66923174,113561.16677097454,73814.76
Commercial on Alvin Street,commercial,"Dallas County, Texas",Alvin Street,32.84399244882163,-96.68684293,147335.32110561518,95767.96
Commercial on Plano Road,commercial,"Dallas County, Texas",Plano Road,32.88031927423685,-96.70142948,53246.95554804697,34610.52
Commercial on Amberton Parkway,commercial,"Dallas County, Texas",Amberton Parkway,32.91820303765642,-96.74059018,42171.95611229262,27411.77
Industrial on Forest Lane,industrial,"Dallas County, Texas",Forest Lane,32.91131929734914,-96.75299167,902017.0315335842,586311.07
Commercial on Northaven Road,commercial,"Dallas County, Texas",Northaven Road,32.899822326972675,-96.77267187,126444.2104389074,82188.74
Commercial on Greenville Avenue,commercial,"Dallas County, Texas",Greenville Avenue,32.87699266027331,-96.75949554,45669.40884727591,29685.12
Commercial on White Rock Trail,commercial,"Dallas County, Texas",White Rock Trail,32.87283115228481,-96.72949191,31378.22646715988,20395.85
Commercial on White Rock Trail,commercial,"Dallas County, Texas",White Rock Trail,32.87060130465827,-96.73017599,134792.99699680423,87615.45
Commercial on Valley Ranch Parkway West,commercial,"Dallas County, Texas",Valley Ranch Parkway West,32.92781816992456,-96.95902647,35755.81193844888,23241.28
Commercial on Maple Avenue,commercial,"Dallas County, Texas",Maple Avenue,32.82124992449322,-96.83744989,42165.36318501174,27407.49
Commercial on Preston Road,commercial,"Dallas County, Texas",Preston Road,32.92203875,-96.80304951,25648.224752330803,16671.35
Commercial on Noel Road,commercial,"Dallas County, Texas",Noel Road,32.92143190382637,-96.81433362,80365.22248416374,52237.39
Commercial on Churchill Way,commercial,"Dallas County, Texas",Churchill Way,32.91637013,-96.80251515,34081.515307710775,22152.98
Commercial on West Campbell Road,commercial,"Dallas County, Texas",West Campbell Road,32.97740600367986,-96.76117332,50925.60234132106,33101.64
Commercial on Midway Road,commercial,"Dallas County, Texas",Midway Road,32.944591964968865,-96.83825348,58518.85590175232,38037.26
Warehouse on Spring Valley Road,warehouse,"Dallas County, Texas",Spring Valley Road,32.9406863,-96.8346195,125751.48178924952,81738.46
Commercial on Dilbeck Lane,commercial,"Dallas County, Texas",Dilbeck Lane,32.92872866439271,-96.80078022,36353.28619140391,23629.64
Commercial on Thackery Street,commercial,"Dallas County, Texas",Thackery Street,32.86676878825856,-96.79354524,313173.5722110697,203562.82
Commercial on McKinney Avenue,commercial,"Dallas County, Texas",McKinney Avenue,32.799275353001256,-96.8014171,39454.79057445262,25645.61
Commercial on Crescent Court,commercial,"Dallas County, Texas",Crescent Court,32.79459506899461,-96.8044062,118817.6193135712,77231.45
Alfred Horatio Belo House,office,"Dallas County, Texas",Ross Avenue,32.78837300477723,-96.79871343,33674.64463,21888.52
Warehouse on Valley View Lane,warehouse,"Dallas County, Texas",Valley View Lane,32.91961747241488,-96.92424236,180553.71809034864,117359.92
The Centrum,commercial,"Dallas County, Texas",Oak Lawn Avenue,32.80915346677074,-96.8077561,108225.82736554185,70346.79
Commercial on Dickason Avenue,commercial,"Dallas County, Texas",Dickason Avenue,32.80696927519055,-96.80827826,24022.57472808828,15614.67
Commercial on Mockingbird Lane,commercial,"Dallas County, Texas",Mockingbird Lane,32.83639380144652,-96.80560028,47048.99533,30581.85
Commercial on Lomo Alto Drive,commercial,"Dallas County, Texas",Lomo Alto Drive,32.86130018578164,-96.81119488,30090.19680050333,19558.63
Commercial on Berkshire Lane,commercial,"Dallas County, Texas",Berkshire Lane,32.86493825094828,-96.80474899,54079.75042480425,35151.84
Commercial on North Greenville Avenue,commercial,"Dallas County, Texas",North Greenville Avenue,32.97803478863397,-96.70787057,50939.97024,33110.98
Commercial on North Bowser Road,commercial,"Dallas County, Texas",North Bowser Road,32.95515455,-96.7132349,40707.56666078163,26459.92
Commercial on International Parkway,commercial,"Dallas County, Texas",International Parkway,32.95794159002869,-96.70832955,46613.85529303048,30299.01
Commercial on East Arapaho Road,commercial,"Dallas County, Texas",East Arapaho Road,32.95898040562181,-96.70827591,44201.23042761826,28730.8
Commercial on East Arapaho Road,commercial,"Dallas County, Texas",East Arapaho Road,32.95988135040293,-96.70607509,79263.86221235368,51521.51
Commercial on Executive Drive East,commercial,"Dallas County, Texas",Executive Drive East,32.96273320009247,-96.70990146,35428.55014473862,23028.56
Commercial on International Parkway,commercial,"Dallas County, Texas",International Parkway,32.961322192523326,-96.70844069,53524.15592,34790.7
Commercial on North Bowser Road,commercial,"Dallas County, Texas",North Bowser Road,32.96138721462992,-96.71462177,47162.34635511941,30655.53
Commercial on East Arapaho Road,commercial,"Dallas County, Texas",East Arapaho Road,32.961315373126475,-96.70648278,52651.96336242783,34223.78
Commercial on Alma Road,commercial,"Dallas County, Texas",Alma Road,32.96224309154989,-96.71622131,44390.23845249571,28853.65
Commercial on International Parkway,commercial,"Dallas County, Texas",International Parkway,32.970808658799534,-96.70707676,69155.79427,44951.27
Commercial on North Glenville Drive,commercial,"Dallas County, Texas",North Glenville Drive,32.96926801170842,-96.70703847,39894.90246314574,25931.69
Promenade Shopping Center,commercial,"Dallas County, Texas",North Coit Road,32.95520054064879,-96.76809975,167125.76453810203,108631.75
Office on Gateway Boulevard,office,"Dallas County, Texas",Gateway Boulevard,32.97274210985721,-96.72206369,31565.442213603543,20517.54
Office on Gateway Boulevard,office,"Dallas County, Texas",Gateway Boulevard,32.97174369431906,-96.72206434,31776.67552731472,20654.84
The Plaza,commercial,"Dallas County, Texas",Richardson Drive,32.96751777663472,-96.72795188,49711.89644087618,32312.73
Commercial on Wisteria Way,commercial,"Dallas County, Texas",Wisteria Way,32.96399761904659,-96.75082875,52529.09040415675,34143.91
Kraft,industrial,"Dallas County, Texas",Forest Lane,32.90720558385896,-96.66341399,610072.7664390603,396547.3
Forum 3,office,"Dallas County, Texas",Belt Line Road,32.951918720606564,-96.84674063,47916.31557622161,31145.61
Office on Addison Road,office,"Dallas County, Texas",Addison Road,32.96935582015243,-96.82829103,57581.01359868545,37427.66
Storage Star Forest Lane,commercial,"Dallas County, Texas",Forest Lane,32.908539511261175,-96.88447078,79069.61326334414,51395.25
Southwest Kia Mesquite,retail,"Dallas County, Texas",Oates Drive,32.83856195001451,-96.63162427,32604.101227508498,21192.67
Commercial on Royal Lane,commercial,"Dallas County, Texas",Royal Lane,32.89552854,-96.89288359,29501.82343002631,19176.19
Commercial on North Central Expressway,commercial,"Dallas County, Texas",North Central Expressway,32.86285483863633,-96.76849218,27682.834564152123,17993.84
High Point Center,commercial,"Dallas County, Texas",Greenville Avenue,32.91435962245566,-96.74601286,41004.04369338787,26652.63
Good Coworking,commercial,"Dallas County, Texas",South Good-Latimer Expressway,32.77552699,-96.78079075,34116.45501287862,22175.7
Office on Montfort Drive,office,"Dallas County, Texas",Montfort Drive,32.93504185452204,-96.81559478,37731.69163339575,24525.6
Retail on Belt Line Road,retail,"Dallas County, Texas",Belt Line Road,32.95337234337669,-96.82117222,54287.75063422918,35287.04
Movement Design District,commercial,"Dallas County, Texas",Glass Street,32.790068539750294,-96.82331643,28890.183575191248,18778.62
Costco,retail,"Dallas County, Texas",Churchill Way,32.919557211653014,-96.7684286,153347.45731834063,99675.85
American Airlines Center,commercial,"Dallas County, Texas",Victory Avenue,32.79048501281591,-96.8102794,189856.3902560817,123406.65
Exchange Logistics,warehouse,"Dallas County, Texas",Glenfield Avenue,32.71868195286547,-96.87180395,115374.11656448776,74993.18
Commercial on Glenfield Avenue,commercial,"Dallas County, Texas",Glenfield Avenue,32.71867466092288,-96.86906686,116608.20517384766,75795.33
Warehouse on Glenfield Avenue,warehouse,"Dallas County, Texas",Glenfield Avenue,32.71726052502369,-96.87034547,197909.0576196344,128640.89
Warehouse on Hansboro Avenue,warehouse,"Dallas County, Texas",Hansboro Avenue,32.716211248095306,-96.87218777,74306.32326592403,48299.11
Commercial on South Lancaster Road,commercial,"Dallas County, Texas",South Lancaster Road,32.708571354405414,-96.80027496,183908.6725901141,119540.64
Warehouse on Miller Park North,warehouse,"Dallas County, Texas",Miller Park North,32.90666026066305,-96.67111975,279127.6296055547,181432.96
Warehouse on Miller Park North,warehouse,"Dallas County, Texas",Miller Park North,32.90489025000001,-96.6726102,330732.8055155796,214976.32
Warehouse on Miller Park North,warehouse,"Dallas County, Texas",Miller Park North,32.90499669152648,-96.66988678,231011.0773333101,150157.2
Warehouse on South International Road,warehouse,"Dallas County, Texas",South International Road,32.90273231940744,-96.67288938,251883.7839568804,163724.46
Warehouse on Loop 12 TEXpress,warehouse,"Dallas County, Texas",Loop 12 TEXpress,32.86982273,-96.89944349,135303.99580008065,87947.6
Warehouse on King William Drive,warehouse,"Dallas County, Texas",King William Drive,32.86778185,-96.8997672,113223.6535,73595.37
Warehouse on King William Drive,warehouse,"Dallas County, Texas",King William Drive,32.870200239811744,-96.90075389,119379.34510331044,77596.57
Warehouse on Goodnight Lane,warehouse,"Dallas County, Texas",Goodnight Lane,32.87263882458236,-96.90090835,143503.32413160737,93277.16
Commercial on Exhibit Terrace,commercial,"Dallas County, Texas",Exhibit Terrace,32.77982037962014,-96.75660956,58325.86683891274,37911.81
Commercial on Jackson Street,commercial,"Dallas County, Texas",Jackson Street,32.77782107111343,-96.80330722,42174.25394138834,27413.27
Commercial on South Market Street,commercial,"Dallas County, Texas",South Market Street,32.77551439265743,-96.8055489,55717.92814666559,36216.65
Industrial on Young Street,industrial,"Dallas County, Texas",Young Street,32.7751501,-96.80629657,65469.47775216728,42555.16
Warehouse on Miller Park South,warehouse,"Dallas County, Texas",Miller Park South,32.902912524900714,-96.67579358,288080.67472004413,187252.44
Warehouse on Marquis Drive,warehouse,"Dallas County, Texas",Marquis Drive,32.90162252520609,-96.67569704,153883.3206390392,100024.16
Academy Sports + Outdoors,retail,"Dallas County, Texas",Forest Central Drive,32.90653448416899,-96.76633775,57689.50033550211,37498.18
The Home Depot,commercial,"Dallas County, Texas",Forest Central Drive,32.907023155452364,-96.76481574,115372.3779309481,74992.05
The Container Store,warehouse,"Dallas County, Texas",Ruby Road,32.960743977156994,-97.01023057,1069891.7620363822,695429.65
Warehouse on Loch Lane,warehouse,"Dallas County, Texas",Loch Lane,32.95830104,-97.00916614,558296.3352858685,362892.62
Commercial on Saturn Drive,commercial,"Dallas County, Texas",Saturn Drive,32.683029316418256,-96.8650147,39117.72857178887,25426.52
Commercial on Saturn Drive,commercial,"Dallas County, Texas",Saturn Drive,32.685674168277224,-96.86493636,23296.15302596341,15142.5
Commercial on Woodhollow Drive,commercial,"Dallas County, Texas",Woodhollow Drive,32.67898442232267,-96.86276988,21051.422270886585,13683.42
Commercial on 1st Continental Place,commercial,"Dallas County, Texas",1st Continental Place,32.679929801579014,-96.86254742,35875.74158448853,23319.23
Commercial on Woodhollow Drive,commercial,"Dallas County, Texas",Woodhollow Drive,32.68000259490315,-96.86192348,20691.54113,13449.5
Commercial on 1st Continental Place,commercial,"Dallas County, Texas",1st Continental Place,32.68036570510581,-96.86260684,28574.302635882515,18573.3
Commercial on Woodhollow Drive,commercial,"Dallas County, Texas",Woodhollow Drive,32.680511677164695,-96.86300131,29782.69916270249,19358.75
Warehouse on International Parkway,warehouse,"Dallas County, Texas",International Parkway,32.857443971132525,-96.66197978,99376.16874838113,64594.51
Warehouse on International Parkway,warehouse,"Dallas County, Texas",International Parkway,32.85752898924832,-96.6639473,25032.04548165409,16270.83
12750 Perimeter,warehouse,"Dallas County, Texas",Perimeter Drive,32.86004631249099,-96.65980317,182736.28540913944,118778.59
Warehouse on Corporate Drive,warehouse,"Dallas County, Texas",Corporate Drive,32.86055468862437,-96.66207621,174291.14337818648,113289.24
Warehouse on Shiloh Road,warehouse,"Dallas County, Texas",Shiloh Road,32.85612353112676,-96.66682582,101469.01950919686,65954.86
Commercial on Alpha Road,commercial,"Dallas County, Texas",Alpha Road,32.93228755000001,-96.809336,51491.56508402797,33469.52
Warehouse on Pinnacle Point Drive,warehouse,"Dallas County, Texas",Pinnacle Point Drive,32.76072501007305,-96.88608931,332078.7275894353,215851.17
Warehouse on Pinnacle Point Drive,warehouse,"Dallas County, Texas",Pinnacle Point Drive,32.75866673336422,-96.88412414,1016860.7545689208,660959.49
Warehouse on Pinnacle Point Drive,warehouse,"Dallas County, Texas",Pinnacle Point Drive,32.76232983767438,-96.89078347,472430.7118225743,307079.96
Warehouse on North Cockrell Hill Road,warehouse,"Dallas County, Texas",North Cockrell Hill Road,32.761590570701685,-96.89347584,95275.10895219876,61928.82
Warehouse on North Cockrell Hill Road,warehouse,"Dallas County, Texas",North Cockrell Hill Road,32.76258932685527,-96.89285193,50968.448126391486,33129.49
Warehouse on North Cockrell Hill Road,warehouse,"Dallas County, Texas",North Cockrell Hill Road,32.76171069709222,-96.89255063,38966.96080890207,25328.52
Warehouse on North Cockrell Hill Road,warehouse,"Dallas County, Texas",North Cockrell Hill Road,32.76042232348517,-96.89714032,645544.2749220508,419603.78
Commercial on North Cockrell Hill Road,commercial,"Dallas County, Texas",North Cockrell Hill Road,32.76035361837558,-96.90070589,314988.861,204742.76
Warehouse on Pinnacle Point Drive,warehouse,"Dallas County, Texas",Pinnacle Point Drive,32.76120939147416,-96.88239609,442647.8501527758,287721.1
Warehouse on Rock Quarry Road,warehouse,"Dallas County, Texas",Rock Quarry Road,32.75297799214201,-96.88952529,360706.6501070012,234459.32
Warehouse on Rock Quarry Road,warehouse,"Dallas County, Texas",Rock Quarry Road,32.753024963585275,-96.88565993,253986.2455490837,165091.06
Warehouse on Rock Quarry Road,warehouse,"Dallas County, Texas",Rock Quarry Road,32.75347408730543,-96.88185427,247897.49866981985,161133.37
Central Garden & Pet,warehouse,"Dallas County, Texas",Rock Quarry Road,32.75117508,-96.88591632,480799.8505287462,312519.9
Warehouse on North Cockrell Hill Road,warehouse,"Dallas County, Texas",North Cockrell Hill Road,32.750947215381984,-96.89016398,137414.44771634464,89319.39
Warehouse on West Davis Street,warehouse,"Dallas County, Texas",West Davis Street,32.751871687191134,-96.87825208,321238.5732948951,208805.07
Warehouse on Pinnacle Point Drive,warehouse,"Dallas County, Texas",Pinnacle Point Drive,32.762868707232506,-96.88684152,557957.7512520248,362672.54
Warehouse on West Commerce Street,warehouse,"Dallas County, Texas",West Commerce Street,32.773586723406474,-96.85962281,176863.51843727927,114961.29
Warehouse on West Commerce Street,warehouse,"Dallas County, Texas",West Commerce Street,32.773591974441246,-96.86156945,96744.84189943096,62884.15
Warehouse on West Commerce Street,warehouse,"Dallas County, Texas",West Commerce Street,32.77424026367785,-96.86309829,85405.67211959967,55513.69
Town East Mall,retail,"Dallas County, Texas",Town East Mall,32.80762585819485,-96.62365783,802542.5875746203,521652.68
Commercial on Casa Linda Plaza,commercial,"Dallas County, Texas",Casa Linda Plaza,32.834051770390296,-96.69981789,102669.19645852812,66734.98
Commercial on Garland Road,commercial,"Dallas County, Texas",Garland Road,32.83391393172633,-96.70120607,20999.38163397491,13649.6
Commercial on North Buckner Boulevard,commercial,"Dallas County, Texas",North Buckner Boulevard,32.83500174,-96.70206281,63067.50265883527,40993.88
Commercial on South Field Street,commercial,"Dallas County, Texas",South Field Street,32.77754405,-96.79947765,51226.45739606969,33297.2
Commercial on South Griffin Street,commercial,"Dallas County, Texas",South Griffin Street,32.77733802295295,-96.80176356,27010.58498551289,17556.88
Three AT&T Plaza,commercial,"Dallas County, Texas",South Akard Street,32.778886316845224,-96.7988024,38927.04735126692,25302.58
Comerica Bank,commercial,"Dallas County, Texas",Main Street,32.78161058,-96.7965282,58797.20712400137,38218.18
Dallas Bus Station,commercial,"Dallas County, Texas",South Lamar Street,32.77837939485122,-96.80441582,41335.733946647415,26868.23
Commercial on South Austin Street,commercial,"Dallas County, Texas",South Austin Street,32.76464387290466,-96.79451471,476874.13564118784,309968.19
Warehouse on Parker Street,warehouse,"Dallas County, Texas",Parker Street,32.76499174228774,-96.78503205,241763.0989476593,157146.01
Retail on West Sandy Lake Road,retail,"Dallas County, Texas",West Sandy Lake Road,32.972434,-97.0184165,103192.44784891664,67075.09
Retail on West Sandy Lake Road,retail,"Dallas County, Texas",West Sandy Lake Road,32.97242000000001,-97.016303,63354.75675918217,41180.59
Retail on West Sandy Lake Road,retail,"Dallas County, Texas",West Sandy Lake Road,32.97250525000001,-97.02368225,58152.63378562181,37799.21
Warehouse on West Sandy Lake Road,warehouse,"Dallas County, Texas",West Sandy Lake Road,32.97528833452704,-97.02157281,597958.5220008332,388673.04
Retail on Freeport Parkway,retail,"Dallas County, Texas",Freeport Parkway,32.97487304818557,-97.01641121,196811.34023710663,127927.37
Warehouse on Esters Boulevard,warehouse,"Dallas County, Texas",Esters Boulevard,32.92843195000001,-97.02563775,477126.4185,310132.17
Warehouse on North 28th Avenue,warehouse,"Dallas County, Texas",North 28th Avenue,32.92839055,-97.0222021,255462.25869722664,166050.47
Amazon Fulfillment Center DFW8,warehouse,"Dallas County, Texas",Regent Boulevard,32.93969044764095,-97.02836135,629454.5614024416,409145.46
Warehouse on Trade Avenue,warehouse,"Dallas County, Texas",Trade Avenue,32.93954259466779,-97.02484767,235971.3413255789,153381.37
Warehouse on Regent Boulevard,warehouse,"Dallas County, Texas",Regent Boulevard,32.943437050000014,-97.027206,404517.4941656828,262936.37
Industrial on Regent Boulevard,industrial,"Dallas County, Texas",Regent Boulevard,32.94166262117937,-97.01865241,385976.6924109903,250884.85
Industrial on Regent Boulevard,industrial,"Dallas County, Texas",Regent Boulevard,32.94120514484797,-97.01620798,182892.1152939901,118879.87
Freeport Commerce,warehouse,"Dallas County, Texas",Sterling Street,32.934396249999985,-97.01779065,51342.59930001704,33372.69
Warehouse on North Royal Lane,warehouse,"Dallas County, Texas",North Royal Lane,32.92845982008033,-97.02128999,153190.4712315709,99573.81
Industrial on Regent Boulevard,industrial,"Dallas County, Texas",Regent Boulevard,32.93904705,-97.01727705,453839.7464280425,294995.84
FedEx,warehouse,"Dallas County, Texas",North Airfield Drive,32.91450783826509,-97.01844748,60056.46472684382,39036.7
FedEx,warehouse,"Dallas County, Texas",North Airfield Drive,32.91553992088468,-97.01965701,55385.12293343036,36000.33
Warehouse on Ambassador Row,warehouse,"Dallas County, Texas",Ambassador Row,32.81483290515125,-96.87480536,243802.21969782465,158471.44
Warehouse on Leston Street,warehouse,"Dallas County, Texas",Leston Street,32.81197844,-96.89733068,195097.44416456044,126813.34
Warehouse on Leston Street,warehouse,"Dallas County, Texas",Leston Street,32.81204113135513,-96.8958536,81699.69222996803,53104.8
Warehouse on Leston Street,warehouse,"Dallas County, Texas",Leston Street,32.81101001294212,-96.89584495,39702.11598541066,25806.38
Warehouse on Leston Street,warehouse,"Dallas County, Texas",Leston Street,32.81190119711152,-96.89668543,89597.85067451894,58238.6
Warehouse on Leston Street,warehouse,"Dallas County, Texas",Leston Street,32.81191646589874,-96.8985176,193204.77869061168,125583.11
Warehouse on Regal Row,warehouse,"Dallas County, Texas",Regal Row,32.81119069696293,-96.8994437,93335.85829420957,60668.31
Warehouse on Regal Row,warehouse,"Dallas County, Texas",Regal Row,32.81263399536768,-96.89941718,95159.60983156432,61853.75
Commercial on Pulaski Street,commercial,"Dallas County, Texas",Pulaski Street,32.80974138980791,-96.87688576,468596.4537661928,304587.69
Warehouse on Pulaski Street,warehouse,"Dallas County, Texas",Pulaski Street,32.81036092270503,-96.87859234,238311.5797027893,154902.53
Commercial on Reading Street,commercial,"Dallas County, Texas",Reading Street,32.80520959999999,-96.86378435,159363.47027590364,103586.26
Salvation Army,retail,"Dallas County, Texas",Harry Hines Boulevard,32.81615889461571,-96.84047504,81754.32900967347,53140.31
Renaissance Tower,commercial,"Dallas County, Texas",Elm Street,32.78129671598092,-96.80183501,34809.54125262302,22626.2
Dallas World Aquarium,commercial,"Dallas County, Texas",North Griffin Street,32.78333881300506,-96.80523402,33802.67779408856,21971.74
Industrial on East Wintergreen Road,industrial,"Dallas County, Texas",East Wintergreen Road,32.63562444711736,-96.69574889,622290.8945421611,404489.08
Commercial on Woodhollow Drive,commercial,"Dallas County, Texas",Woodhollow Drive,32.68216179954622,-96.8649961,27891.664033775785,18129.58
Southwest Center Mall,retail,"Dallas County, Texas",West Camp Wisdom Road,32.65942461626037,-96.87733865,504831.7955424896,328140.67
Warehouse on Trinity Ridge Drive,warehouse,"Dallas County, Texas",Trinity Ridge Drive,32.808684228751474,-97.03248106,271633.3905,176561.7
Warehouse on Trinity Boulevard,warehouse,"Dallas County, Texas",Trinity Boulevard,32.81095835,-97.03257495,504905.057668112,328188.29
Warehouse on East Trinity Boulevard,warehouse,"Dallas County, Texas",East Trinity Boulevard,32.79971,-96.9974759,588549.7278453921,382557.32
Warehouse on East Trinity Boulevard,warehouse,"Dallas County, Texas",East Trinity Boulevard,32.797414450000005,-96.9975765,401669.8956981471,261085.43
Commercial on Harry Hines Boulevard,commercial,"Dallas County, Texas",Harry Hines Boulevard,32.80709802053299,-96.83019617,40822.96872468175,26534.93
Commercial on Harry Hines Boulevard,commercial,"Dallas County, Texas",Harry Hines Boulevard,32.807799815657766,-96.83071593,81150.26060923314,52747.67
Office on North Stemmons Freeway,office,"Dallas County, Texas",North Stemmons Freeway,32.80856687464661,-96.84171779,49578.78900202052,32226.21
Office on North Stemmons Freeway,office,"Dallas County, Texas",North Stemmons Freeway,32.80808858605867,-96.84063172,45097.16608970328,29313.16
Trade Mart,commercial,"Dallas County, Texas",North Stemmons Freeway,32.80364562854789,-96.82667307,342689.2558699561,222748.02
Medieval Times Dinner & Tournament,commercial,"Dallas County, Texas",North Stemmons Freeway,32.79981647762618,-96.823306,67062.62013,43590.7
Office on Cedar Springs Road,office,"Dallas County, Texas",Cedar Springs Road,32.797193017726244,-96.80592193,31255.953147410244,20316.37
Commercial on Crescent Court,commercial,"Dallas County, Texas",Crescent Court,32.793608711052094,-96.80391195,24801.1911339126,16120.77
Retail on McKinney Avenue,retail,"Dallas County, Texas",McKinney Avenue,32.79320790811212,-96.80213444,36122.42499936482,23479.58
Federal Reserve Bank of Dallas,office,"Dallas County, Texas",North Pearl Street,32.79200129306093,-96.80033693,123283.41989558974,80134.22
Meyerson Symphony Center,commercial,"Dallas County, Texas",Flora Street,32.789908318751614,-96.79862058,68936.32986305238,44808.61
Office on North Saint Paul Street,office,"Dallas County, Texas",North Saint Paul Street,32.787530052206144,-96.80228858,30697.89487589785,19953.63
International Conference & Exposition Center,commercial,"Dallas County, Texas",North Harwood Street,32.78462681513812,-96.79567529,96906.85737857886,62989.46
1600 Pacific Tower,office,"Dallas County, Texas",Pacific Avenue,32.78189876320732,-96.79890155,28478.170672701523,18510.81
Commercial on North Field Street,commercial,"Dallas County, Texas",North Field Street,32.78212291197782,-96.80195056,29870.90775177837,19416.09
Commercial on Pacific Avenue,commercial,"Dallas County, Texas",Pacific Avenue,32.78230693059285,-96.80076199,78229.1463,50848.95
Target,retail,"Dallas County, Texas",North Haskell Avenue,32.80373776116123,-96.79155197,130117.18122095258,84576.17
Ross,retail,"Dallas County, Texas",North Haskell Avenue,32.80344310055348,-96.78908992,28311.47540069445,18402.46
Bryan Tower,commercial,"Dallas County, Texas",Federal Street,32.78530683818513,-96.79645249,30694.97417124063,19951.73
Chase Tower,commercial,"Dallas County, Texas",Ross Avenue,32.78795302487753,-96.79664061,33864.50447570046,22011.93
Commercial on Chalk Hill Road,commercial,"Dallas County, Texas",Chalk Hill Road,32.76472031351149,-96.90392482,152048.3856945939,98831.45
Commercial on Chalk Hill Road,commercial,"Dallas County, Texas",Chalk Hill Road,32.763458580864466,-96.90402104,33071.89656410179,21496.73
Retail on Dallas Fort Worth Turnpike,retail,"Dallas County, Texas",Dallas Fort Worth Turnpike,32.762832576853235,-96.9003382,30050.220532161537,19532.64
Commercial on Dallas Fort Worth Turnpike,commercial,"Dallas County, Texas",Dallas Fort Worth Turnpike,32.76284409369541,-96.89938553,37787.09446840917,24561.61
Walmart Supercenter,retail,"Dallas County, Texas",North Cockrell Hill Road,32.76263111254441,-96.89727267,221862.3372550296,144210.52
Retail on North Cockrell Hill Road,retail,"Dallas County, Texas",North Cockrell Hill Road,32.762678981796704,-96.8957837,25712.30824971113,16713.0
Warehouse on Pipestone Road,warehouse,"Dallas County, Texas",Pipestone Road,32.77350279536714,-96.88852399,581638.9967393731,378065.35
Warehouse on French Settlement Road,warehouse,"Dallas County, Texas",French Settlement Road,32.772588821896434,-96.88168065,315021.31065948063,204763.85
Warehouse on French Settlement Road,warehouse,"Dallas County, Texas",French Settlement Road,32.77367162121196,-96.88173173,296059.8428,192438.9
Warehouse on French Settlement Road,warehouse,"Dallas County, Texas",French Settlement Road,32.774526418906675,-96.88424891,286879.41789462254,186471.62
Warehouse on La Reunion Parkway,warehouse,"Dallas County, Texas",La Reunion Parkway,32.77171404311166,-96.88678997,272668.86889819504,177234.76
Warehouse on North Cockrell Hill Road,warehouse,"Dallas County, Texas",North Cockrell Hill Road,32.75083794369605,-96.89258151,58059.35140770408,37738.58
Warehouse on North Cockrell Hill Road,warehouse,"Dallas County, Texas",North Cockrell Hill Road,32.75072360139496,-96.89408259,59937.7027775512,38959.51
Commercial on West Davis Street,commercial,"Dallas County, Texas",West Davis Street,32.75072970157293,-96.89553465,111912.43639024248,72743.08
Fun Movie Grill,commercial,"Dallas County, Texas",Walton Boulevard,32.92468133943153,-96.96649616,79416.11472268129,51620.47
Retail on Market Place Boulevard,retail,"Dallas County, Texas",Market Place Boulevard,32.92265450769417,-96.97735892,149103.78508759817,96917.46
The Home Depot,retail,"Dallas County, Texas",Home Depot Drive,32.92338546716626,-96.98041993,120462.90889836088,78300.89
The Dump Furniture,retail,"Dallas County, Texas",Ranch Trail,32.92406636763809,-96.98309568,183543.07591747944,119303.0
Irving Mall,retail,"Dallas County, Texas",Irving Mall,32.83981016,-96.99666709,844346.5729032558,548825.27
Walmart Supercenter,retail,"Dallas County, Texas",Market Place Boulevard,32.92058366643628,-96.9677412,221142.2057967868,143742.43
Sam's Club,retail,"Dallas County, Texas",Market Place Boulevard,32.920004680996364,-96.96231676,135184.42044851818,87869.87
Retail on North MacArthur Boulevard,retail,"Dallas County, Texas",North MacArthur Boulevard,32.92002291669488,-96.95704733,35210.55454499605,22886.86
Retail on Kinwest Parkway,retail,"Dallas County, Texas",Kinwest Parkway,32.91086332043878,-96.96180857,57071.55239357216,37096.51
Boy Scouts of America National Headquarters,office,"Dallas County, Texas",High Point Drive,32.88593881636872,-96.97019756,35358.03072,22982.72
Retail on South MacArthur Boulevard,retail,"Dallas County, Texas",South MacArthur Boulevard,32.953621387485256,-96.95710548,25359.29877742464,16483.54
Retail on South MacArthur Boulevard,retail,"Dallas County, Texas",South MacArthur Boulevard,32.951679510069106,-96.95887663,22376.20884110156,14544.54
Industrial on East Grand Avenue,industrial,"Dallas County, Texas",East Grand Avenue,32.78804319899876,-96.74978424,785221.7840088495,510394.16
Walmart Supercenter,retail,"Dallas County, Texas",Uptown Boulevard,32.597408457508955,-96.94696369,224068.77753744903,145644.71
Commercial on North Akard Street,commercial,"Dallas County, Texas",North Akard Street,32.78301246350412,-96.80088287,44731.612158861695,29075.55
KDFW-TV / FOX,commercial,"Dallas County, Texas",San Jacinto Street,32.782223887162885,-96.80313169,27756.303817763644,18041.6
The Shed,commercial,"Dallas County, Texas",South Pearl Expressway,32.77769265538826,-96.78864426,31519.29632955749,20487.54
The Market Building,warehouse,"Dallas County, Texas",South Harwood Street,32.77755066679896,-96.79004735,33730.30093634263,21924.7
Industrial on South Ervay Street,industrial,"Dallas County, Texas",South Ervay Street,32.77490716870834,-96.79289625,21674.015652791943,14088.11
Warehouse on Saint Louis Street,warehouse,"Dallas County, Texas",Saint Louis Street,32.77570805,-96.78975957,31276.988115139862,20330.04
DataBank,commercial,"Dallas County, Texas",South Akard Street,32.778301475863216,-96.79843729,43554.29258,28310.29
Commercial on South Akard Street,commercial,"Dallas County, Texas",South Akard Street,32.77860870707887,-96.79997695,37433.22510963685,24331.6
Whitacre Tower,commercial,"Dallas County, Texas",South Akard Street,32.77953193946295,-96.79880677,35553.920518144885,23110.05
Dallas Power & Lights,commercial,"Dallas County, Texas",Browder Street,32.77970939,-96.79796468,37677.33629526596,24490.27
Dallas County Parking Garage D,commercial,"Dallas County, Texas",North Riverfront Boulevard,32.778582347212755,-96.81272686,80553.33331672686,52359.67
Commercial on Continental Avenue,commercial,"Dallas County, Texas",Continental Avenue,32.783235950000005,-96.81701305,32537.23984580941,21149.21
Commercial on Continental Avenue,commercial,"Dallas County, Texas",Continental Avenue,32.78289109988356,-96.81967831,26941.434994241747,17511.93
Commercial on Parkhouse Street,commercial,"Dallas County, Texas",Parkhouse Street,32.78333298,-96.81867173,29883.543626829163,19424.3
Warehouse on Parkhouse Street,warehouse,"Dallas County, Texas",Parkhouse Street,32.78410733964854,-96.81844216,21493.321620890496,13970.66
Commercial on McKinney Avenue,commercial,"Dallas County, Texas",McKinney Avenue,32.78368606551087,-96.80932845,29386.96631866148,19101.53
Factory Six03,commercial,"Dallas County, Texas",Munger Avenue,32.78322827185666,-96.80777635,43221.21738518179,28093.79
Commercial on North Lamar Street,commercial,"Dallas County, Texas",North Lamar Street,32.782814653981006,-96.80579718,22724.05081080716,14770.63
Commercial on North Lamar Street,commercial,"Dallas County, Texas",North Lamar Street,32.78236361278369,-96.80630973,34269.543053253794,22275.2
Oncor,office,"Dallas County, Texas",Woodall Rodgers Freeway,32.78661561855194,-96.80339724,41956.395504666965,27271.66
Commercial on Victory Park Lane,commercial,"Dallas County, Texas",Victory Park Lane,32.78677409451384,-96.8090221,34805.00261005334,22623.25
Commercial on North Olive Street,commercial,"Dallas County, Texas",North Olive Street,32.786031048070434,-96.79761527,31511.68105860055,20482.59
717 Harwood,office,"Dallas County, Texas",North Harwood Street,32.78559241370414,-96.79811253,32297.378776211142,20993.3
Plaza of the Americas,commercial,"Dallas County, Texas",Crockett Street,32.78723984394848,-96.79529227,87212.77699215758,56688.31
Commercial on Bryan Street,commercial,"Dallas County, Texas",Bryan Street,32.78722229151115,-96.79418279,21058.01193688112,13687.71
Trammell Crow Center,commercial,"Dallas County, Texas",Ross Avenue,32.78761615812136,-96.79924565,27315.91785475998,17755.35
The Link,office,"Dallas County, Texas",Olive Street,32.79060903096116,-96.80612493,27296.46233752086,17742.7
Commercial on North Stemmons Freeway,commercial,"Dallas County, Texas",North Stemmons Freeway,32.78786245230646,-96.81425048,78500.99754788977,51025.65
Commercial on Slocum Street,commercial,"Dallas County, Texas",Slocum Street,32.79229970790499,-96.81765954,54011.12877902134,35107.23
Commercial on Dragon Street,commercial,"Dallas County, Texas",Dragon Street,32.79246312099956,-96.81965279,101106.10726970322,65718.97
Industrial on Yorktown Street,industrial,"Dallas County, Texas",Yorktown Street,32.77032188,-96.8330153,82246.00545878464,53459.9
Cash Saver,retail,"Dallas County, Texas",East Ledbetter Drive,32.68553333370259,-96.78812433,52322.534381580495,34009.65
Commercial on South Lancaster Road,commercial,"Dallas County, Texas",South Lancaster Road,32.69610674801482,-96.79453539,30125.22923,19581.4
Commercial on East Ann Arbor Avenue,commercial,"Dallas County, Texas",East Ann Arbor Avenue,32.69806805,-96.79099612,29521.342714938222,19188.87
Warehouse on Forney Road,warehouse,"Dallas County, Texas",Forney Road,32.779263334166096,-96.66858043,411827.3241308305,267687.76
Industrial on Skyline Drive,industrial,"Dallas County, Texas",Skyline Drive,32.7815555,-96.64957725,531549.3079789834,345507.05
Warehouse on Skyline Drive,warehouse,"Dallas County, Texas",Skyline Drive,32.77864698302039,-96.6352457,260674.0974,169438.16
Warehouse on Big Town Boulevard,warehouse,"Dallas County, Texas",Big Town Boulevard,32.78572878543739,-96.67134177,220194.19887440544,143126.23
Warehouse on Big Town Boulevard,warehouse,"Dallas County, Texas",Big Town Boulevard,32.785268200000004,-96.67295685,20830.43567146141,13539.78
Commercial on Catron Drive,commercial,"Dallas County, Texas",Catron Drive,32.78778747517654,-96.67365236,226803.99250943525,147422.6
Warehouse on Samuell Boulevard,warehouse,"Dallas County, Texas",Samuell Boulevard,32.79446565,-96.67760036,444332.8029153257,288816.32
Industrial on South Town East Boulevard,industrial,"Dallas County, Texas",South Town East Boulevard,32.77229657896383,-96.64767365,194645.4465316629,126519.54
Industrial on Bridge to Nowhere,industrial,"Dallas County, Texas",Bridge to Nowhere,32.77453595701401,-96.62639202,405378.4548254738,263496.0
Warehouse on Jupiter Road,warehouse,"Dallas County, Texas",Jupiter Road,32.885104808897324,-96.68454207,277904.5201004977,180637.94
Warehouse on Distribution Drive,warehouse,"Dallas County, Texas",Distribution Drive,32.89080300045587,-96.6920843,215385.46323024388,140000.55
Warehouse on Regency Crest Drive,warehouse,"Dallas County, Texas",Regency Crest Drive,32.88991229140168,-96.69211663,180798.6641662624,117519.13
Warehouse on Petal Street,warehouse,"Dallas County, Texas",Petal Street,32.88379689635672,-96.68664598,253298.9498415728,164644.32
Warehouse on Petal Street,warehouse,"Dallas County, Texas",Petal Street,32.883781003292775,-96.68927472,99848.1980259822,64901.33
Formosa May,warehouse,"Dallas County, Texas",Distribution Drive,32.89089476084419,-96.68928157,115772.76607339656,75252.3
Warehouse on Regency Crest Drive,warehouse,"Dallas County, Texas",Regency Crest Drive,32.889748346688634,-96.68874588,223822.248560778,145484.46
Warehouse on Grader Street,warehouse,"Dallas County, Texas",Grader Street,32.88693129022541,-96.68947046,197541.2865,128401.84
Warehouse on South Jupiter Road,warehouse,"Dallas County, Texas",South Jupiter Road,32.89201275821728,-96.68526057,219340.6373192097,142571.41
Warehouse on Regency Crest Drive,warehouse,"Dallas County, Texas",Regency Crest Drive,32.888023155356414,-96.68428322,165545.1471813373,107604.35
Warehouse on Grader Street,warehouse,"Dallas County, Texas",Grader Street,32.88702136055657,-96.68709396,227693.85661162445,148001.01
Warehouse on South Jupiter Road,warehouse,"Dallas County, Texas",South Jupiter Road,32.88996699,-96.68519502,240817.1479396312,156531.15
Warehouse on Distribution Drive,warehouse,"Dallas County, Texas",Distribution Drive,32.89266188204852,-96.69207448,308920.3801157119,200798.25
Warehouse on West Miller Road,warehouse,"Dallas County, Texas",West Miller Road,32.89392455,-96.69211085,110753.4910419094,71989.77
Warehouse on Sanden Drive,warehouse,"Dallas County, Texas",Sanden Drive,32.89570169674727,-96.69288633,175958.94767237842,114373.32
Commercial on Grader Street,commercial,"Dallas County, Texas",Grader Street,32.884742550000006,-96.68758815,86271.43441421619,56076.43
Commercial on Grader Street,commercial,"Dallas County, Texas",Grader Street,32.88549672730765,-96.68761444,65610.80996,42647.03
Warehouse on West Miller Road,warehouse,"Dallas County, Texas",West Miller Road,32.89387402115771,-96.68616642,100254.2587115214,65165.27
Warehouse on West Miller Road,warehouse,"Dallas County, Texas",West Miller Road,32.893870512812185,-96.68412715,64137.309758720905,41689.25
Warehouse on West Miller Road,warehouse,"Dallas County, Texas",West Miller Road,32.89291957120064,-96.68416815,85661.70473187411,55680.11
Warehouse on West Miller Road,warehouse,"Dallas County, Texas",West Miller Road,32.89292637138809,-96.68615256,127390.86677945202,82804.06
Warehouse on Sanden Drive,warehouse,"Dallas County, Texas",Sanden Drive,32.88854787,-96.69584645,204909.2015898615,133190.98
Warehouse on Sanden Drive,warehouse,"Dallas County, Texas",Sanden Drive,32.891716799217164,-96.69611218,506480.15376393625,329212.1
Warehouse on Sanden Drive,warehouse,"Dallas County, Texas",Sanden Drive,32.88996968189965,-96.69592996,228797.43114100088,148718.33
Park Lane,retail,"Dallas County, Texas",North Central Expressway,32.87317833335528,-96.76813845,201028.8165943567,130668.73
Dallas ISD,commercial,"Dallas County, Texas",North Central Expressway,32.87652266791404,-96.76830043,26489.429526842112,17218.13
8750 NorthPark Central,office,"Dallas County, Texas",North Central Expressway,32.86706342448361,-96.76903686,25792.504129790632,16765.13
Commercial on North Central Expressway,commercial,"Dallas County, Texas",North Central Expressway,32.87508832990376,-96.767814,164726.82795412367,107072.44
Commercial on Conflans Road,commercial,"Dallas County, Texas",Conflans Road,32.82287219999999,-96.9961577,62269.61381603568,40475.25
Commercial on Conflans Road,commercial,"Dallas County, Texas",Conflans Road,32.822871025354274,-96.99547575,61443.07551151173,39938.0
Retail on Forest Drive,retail,"Dallas County, Texas",Forest Drive,32.82765568374745,-96.9953791,33816.528997246765,21980.74
Retail on West Pioneer Drive,retail,"Dallas County, Texas",West Pioneer Drive,32.829806854806826,-96.99549069,59242.38284106001,38507.55
Retail on West Airport Freeway,retail,"Dallas County, Texas",West Airport Freeway,32.83412107893654,-96.99751905,49936.53761,32458.75
Lowe's,retail,"Dallas County, Texas",West Airport Freeway,32.833203527726674,-96.99584889,145665.04530109285,94682.28
The Home Depot,retail,"Dallas County, Texas",West Irving Boulevard,32.83361569419456,-96.99106239,102474.11497062912,66608.17
Office on West Royal Lane,office,"Dallas County, Texas",West Royal Lane,32.894894505795705,-96.96702738,27918.485808119472,18147.02
Office on West John W Carpenter Freeway,office,"Dallas County, Texas",West John W Carpenter Freeway,32.89614587437384,-96.96891006,28859.3773753614,18758.6
Office on SH 114 TEXpress,office,"Dallas County, Texas",SH 114 TEXpress,32.89531240150712,-96.96817305,33997.20593891112,22098.18
Starplex 17,commercial,"Dallas County, Texas",West Pioneer Drive,32.83345674437501,-97.00675302,36360.38035781711,23634.25
Office on Lyndon B Johnson Freeway,office,"Dallas County, Texas",Lyndon B Johnson Freeway,32.926804098107105,-96.81457416,21918.48074852954,14247.01
Commercial on Lyndon B Johnson Freeway,commercial,"Dallas County, Texas",Lyndon B Johnson Freeway,32.92693764151893,-96.81542556,25570.41044537029,16620.77
Target,retail,"Dallas County, Texas",Montfort Drive,32.92820906098617,-96.81355395,126190.07976395157,82023.55
Commercial on Lyndon B Johnson Freeway,commercial,"Dallas County, Texas",Lyndon B Johnson Freeway,32.92820514,-96.81502174,27330.18322712946,17764.62
Two Galleria Tower,office,"Dallas County, Texas",Noel Road,32.930855597638086,-96.81862459,27846.99161,18100.54
One Galleria Tower,office,"Dallas County, Texas",Noel Road,32.929417169953595,-96.81864688,22776.843642380376,14804.95
Commercial on Northwest Parkway,commercial,"Dallas County, Texas",Northwest Parkway,32.865018531541644,-96.80233551,29947.35199755404,19465.78
Retail on Westchester Drive,retail,"Dallas County, Texas",Westchester Drive,32.86517842876597,-96.8056587,20750.173319323203,13487.61
Retail on Berkshire Lane,retail,"Dallas County, Texas",Berkshire Lane,32.86403687532252,-96.80475074,44799.86195024644,29119.91
Commercial on Preston Road,commercial,"Dallas County, Texas",Preston Road,32.86362043251273,-96.80374342,37312.30955081577,24253.0
Commercial on Preston Road,commercial,"Dallas County, Texas",Preston Road,32.86272306315102,-96.80480425,35962.43166654042,23375.58
Office on Douglas Avenue,office,"Dallas County, Texas",Douglas Avenue,32.863267467342574,-96.80790867,40539.35100439217,26350.58
Commercial on Kate Street,commercial,"Dallas County, Texas",Kate Street,32.86246844190796,-96.80593872,20596.42678041933,13387.68
Office on Douglas Avenue,office,"Dallas County, Texas",Douglas Avenue,32.86413714619933,-96.8078196,27128.088501523493,17633.26
Office on Luther Lane,office,"Dallas County, Texas",Luther Lane,32.864156353288,-96.80951985,27381.10511494104,17797.72
Sterling Plaza,commercial,"Dallas County, Texas",Sherry Lane,32.86263797972246,-96.80989738,21463.70900069742,13951.41
Commercial on Sherry Lane,commercial,"Dallas County, Texas",Sherry Lane,32.862051753374274,-96.81109365,29566.11345152703,19217.97
Retail on West Lovers Lane,retail,"Dallas County, Texas",West Lovers Lane,32.85042757678756,-96.81898225,120869.36466421504,78565.09
Commercial on Boaz Street,commercial,"Dallas County, Texas",Boaz Street,32.85040620359342,-96.82053568,52381.29145334361,34047.84
Esters Plaza,retail,"Dallas County, Texas",Esters Road,32.835071952673765,-97.0088544,24882.469350381427,16173.61
Burkes Outlet,retail,"Dallas County, Texas",West Airport Freeway,32.83850409729675,-97.00311272,38045.63083581295,24729.66
Commercial on West Airport Freeway,commercial,"Dallas County, Texas",West Airport Freeway,32.83589458818525,-97.0000667,53662.32806757297,34880.51
Retail on Boaz Street,retail,"Dallas County, Texas",Boaz Street,32.849602649999994,-96.8205022,22030.999374067986,14320.15
Retail on Boaz Street,retail,"Dallas County, Texas",Boaz Street,32.849605074877125,-96.81947144,20281.371869408475,13182.89
Office on Inwood Road,office,"Dallas County, Texas",Inwood Road,32.848928352049505,-96.82184856,23605.44713879247,15343.54
Commercial on Bristol Avenue,commercial,"Dallas County, Texas",Bristol Avenue,32.84573706945671,-96.83405248,86370.75245637714,56140.99
Warehouse on Lemmon Avenue,warehouse,"Dallas County, Texas",Lemmon Avenue,32.84702593520817,-96.83501012,30973.885968257066,20133.03
Commercial on Hopkins Avenue,commercial,"Dallas County, Texas",Hopkins Avenue,32.848204698486896,-96.83690078,23988.836267617902,15592.74
Retail on Lemmon Avenue,retail,"Dallas County, Texas",Lemmon Avenue,32.842963896917944,-96.83360052,23601.46802724041,15340.95
Commercial on Harry Hines Boulevard,commercial,"Dallas County, Texas",Harry Hines Boulevard,32.83471770562863,-96.8661096,31787.674155989323,20661.99
Commercial on Burbank Street,commercial,"Dallas County, Texas",Burbank Street,32.83536983942957,-96.86750849,66343.11107280837,43123.02
Commercial on Viceroy Drive,commercial,"Dallas County, Texas",Viceroy Drive,32.83340174716879,-96.87044933,25739.84909238926,16730.9
Commercial on Regal Row,commercial,"Dallas County, Texas",Regal Row,32.836246141738094,-96.86936565,30469.65324713604,19805.27
Commercial on North Stemmons Freeway,commercial,"Dallas County, Texas",North Stemmons Freeway,32.83400575380176,-96.87344516,23018.741930614586,14962.18
Retail on West Airport Freeway,retail,"Dallas County, Texas",West Airport Freeway,32.839792351272614,-96.99177692,28546.88949218456,18555.48
Retail on Imperial Drive,retail,"Dallas County, Texas",Imperial Drive,32.838766351364086,-96.98919349,53930.49200004243,35054.82
Retail on West Airport Freeway,retail,"Dallas County, Texas",West Airport Freeway,32.838156763740805,-96.98863528,29123.71230850541,18930.41
Retail on North Belt Line Road,retail,"Dallas County, Texas",North Belt Line Road,32.84195074,-96.99177725,47960.37530217681,31174.24
Retail on Belt Line Road,retail,"Dallas County, Texas",Belt Line Road,32.95336570531249,-96.8243859,71736.71958774624,46628.87
Fountain Place,commercial,"Dallas County, Texas",Ross Avenue,32.78479690120483,-96.80254402,40156.420733815554,26101.67
Thomas Printworks,retail,"Dallas County, Texas",Quorum Drive,32.955643024948564,-96.82698742,34049.38806102751,22132.1
Minol Center,office,"Dallas County, Texas",Addison Road,32.9572248,-96.82926236,21836.48145362857,14193.71
The Spectrum,office,"Dallas County, Texas",Arapaho Road,32.95828867408211,-96.82512214,24359.59957291032,15833.74
Green Acres,retail,"Dallas County, Texas",Ranch Trail,32.924186079760034,-96.98426642,29677.14061860265,19290.14
Two AT&T Plaza,commercial,"Dallas County, Texas",South Akard Street,32.77930684537751,-96.80005698,53232.92394544301,34601.4
Office on Macarthur Ridge Drive,office,"Dallas County, Texas",Macarthur Ridge Drive,32.8779855825542,-96.96042921,43991.326066207526,28594.36
Office on Hidden Ridge,office,"Dallas County, Texas",Hidden Ridge,32.878174104756546,-96.95918479,43543.1434700988,28303.04
Commercial on Noel Road,commercial,"Dallas County, Texas",Noel Road,32.93347291616135,-96.81754885,32114.41297137404,20874.37
Retail on Montfort Drive,retail,"Dallas County, Texas",Montfort Drive,32.92881181621984,-96.81200052,25055.261102336248,16285.92
Retail on Montfort Drive,retail,"Dallas County, Texas",Montfort Drive,32.92980919945592,-96.81177398,26401.162522457314,17160.76
Office on Montfort Drive,office,"Dallas County, Texas",Montfort Drive,32.93568364217509,-96.81450106,28353.69759744146,18429.9
Staples,retail,"Dallas County, Texas",West John W Carpenter Freeway,32.89082220795223,-96.95888705,24906.66811,16189.33
Retail on North MacArthur Boulevard,retail,"Dallas County, Texas",North MacArthur Boulevard,32.892162453587204,-96.95968371,38150.96737161426,24798.13
Retail on West Walnut Hill Lane,retail,"Dallas County, Texas",West Walnut Hill Lane,32.88404916947717,-96.9657246,39241.894657886674,25507.23
Tom Thumb,retail,"Dallas County, Texas",East Pleasant Run Road,32.60287126502973,-96.855658,60968.119089240216,39629.28
Tom Thumb,retail,"Dallas County, Texas",Pioneer Road,32.74610035118857,-96.58626005,59726.04951318916,38821.93
Tom Thumb,retail,"Dallas County, Texas",South Carrier Parkway,32.67125286940728,-97.00336078,58379.18477883513,37946.47
Retail on Preston Road,retail,"Dallas County, Texas",Preston Road,32.95224360564164,-96.80236906,23516.50049967575,15285.73
Commercial on Preston Road,commercial,"Dallas County, Texas",Preston Road,32.951842561625625,-96.80212348,44531.833663444166,28945.69
Retail on Preston Road,retail,"Dallas County, Texas",Preston Road,32.911461491646584,-96.80515845,20840.73998581824,13546.48
Tom Thumb,commercial,"Dallas County, Texas",Preston Road,32.911102833090006,-96.80202462,70502.70811092123,45826.76
Central Market,commercial,"Dallas County, Texas",Preston Road,32.89422650360768,-96.80208287,31746.673494320632,20635.34
Retail on East Mockingbird Lane,retail,"Dallas County, Texas",East Mockingbird Lane,32.83707592219706,-96.75470954,22000.56066971486,14300.36
Tom Thumb,retail,"Dallas County, Texas",Forest Lane,32.91082372515356,-96.85302102,51579.440291311694,33526.64
Tom Thumb 3621,retail,"Dallas County, Texas",North MacArthur Boulevard,32.859866021184104,-96.95735084,53537.08482863445,34799.11
Tom Thumb 2578,retail,"Dallas County, Texas",Firewheel Parkway,32.93744724202126,-96.60551987,64922.18160569432,42199.42
Sam's Club,retail,"Dallas County, Texas",North Garland Avenue,32.961039281281955,-96.64420544,132949.87154430072,86417.42
Walmart Supercenter,retail,"Dallas County, Texas",North Garland Avenue,32.96241406943406,-96.64249439,237609.0734929364,154445.9
Retail on East Sandy Lake Road,retail,"Dallas County, Texas",East Sandy Lake Road,32.96995469335582,-96.99178399,20077.989786845297,13050.69
Tom Thumb,commercial,"Dallas County, Texas",West Campbell Road,32.980085884352455,-96.7669237,71088.64228,46207.62
Retail on West Campbell Road,retail,"Dallas County, Texas",West Campbell Road,32.98031789341837,-96.76638569,23674.60517092171,15388.49
Retail on West Campbell Road,retail,"Dallas County, Texas",West Campbell Road,32.980333991597526,-96.76747212,26199.66407929968,17029.78
Tom Thumb,commercial,"Dallas County, Texas",Arapaho Village Center,32.96139276318924,-96.74978511,45231.11184472519,29400.22
Tom Thumb 3563,retail,"Dallas County, Texas",West Wheatland Road,32.648295602954725,-96.92279363,56402.43726060208,36661.58
Tom Thumb,retail,"Dallas County, Texas",Marsh Lane,32.93855600546672,-96.85360029,62439.72150069049,40585.82
Walmart Supercenter,retail,"Dallas County, Texas",West Belt Line Road,32.59220838,-96.81921173,246205.25337819103,160033.41
The Home Depot,retail,"Dallas County, Texas",North Interstate 35E,32.59497973522516,-96.81960857,107799.45024461906,70069.64
Bank of America Plaza,commercial,"Dallas County, Texas",Main Street,32.780014871277736,-96.8039011,26373.65873411992,17142.88
Commercial on North Coit Road,commercial,"Dallas County, Texas",North Coit Road,32.95708640329492,-96.76725743,42194.32295892444,27426.31
Office on Rambler Road,office,"Dallas County, Texas",Rambler Road,32.88517501228101,-96.7631883,26581.60905028008,17278.05
Adell Corporation,warehouse,"Dallas County, Texas",Adell Boulevard,32.78820452773804,-96.57190123,167138.4538641994,108640.0
Retail on Center Ridge Drive,retail,"Dallas County, Texas",Center Ridge Drive,32.648678897524185,-96.92415416,45377.510539842464,29495.38
Mesquite Independent School District,commercial,"Dallas County, Texas",Towne Crossing Boulevard,32.817049149566806,-96.63154418,29538.2985100484,19199.89
Bank of America,commercial,"Dallas County, Texas",Dallas Parkway,32.95478258997227,-96.8211671,21191.018134312275,13774.16
Prestonwood Tower,commercial,"Dallas County, Texas",Belt Line Road,32.95455713003216,-96.82011475,20540.13245977907,13351.09
Lee & Associates,office,"Dallas County, Texas",Quorum Drive,32.95264008967064,-96.82511092,20948.47353436165,13616.51
Millennium Tower,office,"Dallas County, Texas",Dallas Parkway,32.96003990349291,-96.82199917,31735.24980077013,20627.91
The Colonnade,office,"Dallas County, Texas",Dallas North Tollway,32.95849452060867,-96.82262781,113180.49201843688,73567.32
Harwood Center,commercial,"Dallas County, Texas",Bryan Street,32.78481379561637,-96.79718064,25720.651461495367,16718.42
One Dallas Center,office,"Dallas County, Texas",North Saint Paul Street,32.78399612714488,-96.79681805,21145.70368393016,13744.71
Dallas Post Office - Downtown Station,commercial,"Dallas County, Texas",North Ervay Street,32.78380878630878,-96.79824508,44888.39849920681,29177.46
Victory Plaza East,commercial,"Dallas County, Texas",Unknown,32.78973491750031,-96.80922306,20721.07313499728,13468.7
Victory Plaza West,commercial,"Dallas County, Texas",Valor Place,32.78933116610202,-96.80983066,28576.87000380696,18574.97
Warehouse on Trade Center Drive,warehouse,"Dallas County, Texas",Trade Center Drive,32.7766992,-96.63528515,495838.0855892331,322294.76
Warehouse on Skyline Drive,warehouse,"Dallas County, Texas",Skyline Drive,32.77793540000001,-96.6318691,265894.72759979893,172831.57
Industrial on Samuell Boulevard,industrial,"Dallas County, Texas",Samuell Boulevard,32.79434296173333,-96.68092106,527827.1515148317,343087.65
Warehouse on Endicott Lane,warehouse,"Dallas County, Texas",Endicott Lane,32.78033575341007,-96.67841392,240584.047173378,156379.63
Warehouse on Endicott Lane,warehouse,"Dallas County, Texas",Endicott Lane,32.78100179083798,-96.67814396,122296.6131030676,79492.8
Industrial on Moberly Lane,industrial,"Dallas County, Texas",Moberly Lane,32.782799837789405,-96.67932509,248766.3675343844,161698.14
Warehouse on West John W Carpenter Freeway,warehouse,"Dallas County, Texas",West John W Carpenter Freeway,32.9312009,-97.03174915,212084.9515335693,137855.22
Costco,retail,"Dallas County, Texas",West Highway 67,32.62150787873282,-96.90951474,156594.5264,101786.44
Meadow Park Tower,office,"Dallas County, Texas",North Central Expressway,32.88917106715487,-96.76880062,20822.19206814774,13534.42
Energy Plaza,commercial,"Dallas County, Texas",Bryan Street,32.78315999904386,-96.79914864,40514.31545205924,26334.31
Atrium I,office,"Dallas County, Texas",Midway Road,32.94408179999999,-96.83990225,26022.87822308792,16914.87
Atrium II,office,"Dallas County, Texas",Proton Drive,32.9442092,-96.8413455,24987.438919191773,16241.84
Atrium III,office,"Dallas County, Texas",Proton Drive,32.945384600000004,-96.84133685,24980.39052888252,16237.25
8080 Park Lane,office,"Dallas County, Texas",Park Lane,32.87100547610301,-96.76778893,20510.59698698427,13331.89
Walmart Supercenter,retail,"Dallas County, Texas",Retail Road,32.86286683710355,-96.75483186,171110.56038105412,111221.86
Commercial on Devonshire Drive,commercial,"Dallas County, Texas",Devonshire Drive,32.949626006565026,-96.73674273,83936.83829740342,54558.94
Commercial on Devonshire Drive,commercial,"Dallas County, Texas",Devonshire Drive,32.950241299316694,-96.73854838,38233.89360061815,24852.03
Commercial on Sherman Street,commercial,"Dallas County, Texas",Sherman Street,32.9473536,-96.73419603,23350.71720405101,15177.97
Commercial on South Central Expressway,commercial,"Dallas County, Texas",South Central Expressway,32.945307115333534,-96.73777652,39217.24351137169,25491.21
Commercial on South Central Expressway,commercial,"Dallas County, Texas",South Central Expressway,32.94933041345639,-96.73853325,41953.62765112058,27269.86
Retail on Inge Drive,retail,"Dallas County, Texas",Inge Drive,32.94845860491413,-96.73781348,56773.86661862706,36903.01
Commercial on West Phillips Street,commercial,"Dallas County, Texas",West Phillips Street,32.946275463830325,-96.73625992,37346.01277402349,24274.91
Commercial on Sherman Street,commercial,"Dallas County, Texas",Sherman Street,32.94475433730874,-96.73760766,21348.708665258444,13876.66
Commercial on Sherman Street,commercial,"Dallas County, Texas",Sherman Street,32.94428767495642,-96.73825264,46432.85289441277,30181.35
Commercial on Lingco Drive,commercial,"Dallas County, Texas",Lingco Drive,32.94205183979618,-96.73893259,32296.53937008044,20992.75
Commercial on Sherman Street,commercial,"Dallas County, Texas",Sherman Street,32.941364719902765,-96.74079316,20692.00293707425,13449.8
Commercial on Sherman Street,commercial,"Dallas County, Texas",Sherman Street,32.94231420778208,-96.7398593,22709.31798937951,14761.06
Commercial on Sherman Street,commercial,"Dallas County, Texas",Sherman Street,32.94299733431832,-96.73912837,29616.55145654768,19250.76
Commercial on Lingco Drive,commercial,"Dallas County, Texas",Lingco Drive,32.94354892193309,-96.73706528,22758.85240784201,14793.25
Commercial on Sherman Street,commercial,"Dallas County, Texas",Sherman Street,32.94388316792446,-96.73657371,24502.05197545332,15926.33
Commercial on Sherman Street,commercial,"Dallas County, Texas",Sherman Street,32.944337078597684,-96.73627753,39363.856839006046,25586.51
Commercial on Sherman Street,commercial,"Dallas County, Texas",Sherman Street,32.94547077,-96.73549733,24930.238287644817,16204.65
Commercial on West Phillips Street,commercial,"Dallas County, Texas",West Phillips Street,32.94565565779569,-96.73509187,24052.088381576134,15633.86
Commercial on West Phillips Street,commercial,"Dallas County, Texas",West Phillips Street,32.947104777702705,-96.73577722,25586.33122,16631.12
Commercial on Central Trail,commercial,"Dallas County, Texas",Central Trail,32.94317797487259,-96.73635543,22002.00393507249,14301.3
Commercial on South Sherman Street,commercial,"Dallas County, Texas",South Sherman Street,32.93860655183371,-96.73974089,34666.12862169326,22532.98
Commercial on Central Trail,commercial,"Dallas County, Texas",Central Trail,32.93799616259043,-96.74013344,32763.62200819981,21296.35
Commercial on South Sherman Street,commercial,"Dallas County, Texas",South Sherman Street,32.93756243602928,-96.7406378,21417.726748638983,13921.52
Commercial on Central Trail,commercial,"Dallas County, Texas",Central Trail,32.93697099278928,-96.74078254,33151.94337440318,21548.76
Commercial on West Buckingham Road,commercial,"Dallas County, Texas",West Buckingham Road,32.936598248875256,-96.74124807,22351.91356853221,14528.74
Commercial on South Central Expressway,commercial,"Dallas County, Texas",South Central Expressway,32.94075485537128,-96.7466984,24937.10319478788,16209.12
Commercial on Saint Paul Drive,commercial,"Dallas County, Texas",Saint Paul Drive,32.94261032518944,-96.74903596,28617.30188739489,18601.25
Retail on North Central Expressway,retail,"Dallas County, Texas",North Central Expressway,32.936862332035616,-96.75281758,134336.87031577635,87318.97
Commercial on South Central Expressway,commercial,"Dallas County, Texas",South Central Expressway,32.94170905192206,-96.74183425,54499.10403889214,35424.42
Commercial on South Central Expressway,commercial,"Dallas County, Texas",South Central Expressway,32.94221301113745,-96.74125471,23681.649976725766,15393.07
Pooch Hotel,commercial,"Dallas County, Texas",South Central Expressway,32.94261624925024,-96.74104327,22435.54702521649,14583.11
Commercial on South Central Expressway,commercial,"Dallas County, Texas",South Central Expressway,32.94212828535715,-96.74579988,22401.04178223833,14560.68
Commercial on Anglewood Drive,commercial,"Dallas County, Texas",Anglewood Drive,32.93496564024665,-96.74750742,26777.14037776072,17405.14
Retail on Montfort Drive,retail,"Dallas County, Texas",Montfort Drive,32.931464381784465,-96.8131866,31066.230846532235,20193.05
Commercial on Cottonwood Creek Trail,commercial,"Dallas County, Texas",Cottonwood Creek Trail,32.93889232292847,-96.76213951,34442.82054035616,22387.83
Fiesta Mart,retail,"Dallas County, Texas",Greenhollow Lane,32.93889566514586,-96.76709156,51137.59949312125,33239.44
Retail on Spring Valley Road,retail,"Dallas County, Texas",Spring Valley Road,32.94124382388497,-96.77081387,97965.86621085972,63677.81
Retail on Preston Road,retail,"Dallas County, Texas",Preston Road,32.92917384,-96.80246331,43890.30164729728,28528.7
Preston Playhouse,commercial,"Dallas County, Texas",Preston Road,32.927688844111685,-96.80220777,46260.82103584838,30069.53
Rooms To Go,retail,"Dallas County, Texas",Lyndon B Johnson Freeway,32.92626953036248,-96.8024141,27438.564829917897,17835.07
Commercial on Coit Road,commercial,"Dallas County, Texas",Coit Road,32.92791252570717,-96.76835823,21837.925731564246,14194.65
Commercial on Coit Road,commercial,"Dallas County, Texas",Coit Road,32.92761821144782,-96.76823184,24071.83142982671,15646.69
North Central Plaza,commercial,"Dallas County, Texas",North Central Expressway,32.921760732325104,-96.76652827,25563.49755717992,16616.27
Commercial on Coit Road,commercial,"Dallas County, Texas",Coit Road,32.92164938596325,-96.76827372,24657.18563839267,16027.17
Commercial on North Central Expressway,commercial,"Dallas County, Texas",North Central Expressway,32.920692301797274,-96.76663021,20983.688373675945,13639.4
CBS Tower,commercial,"Dallas County, Texas",North Central Expressway,32.913668861297765,-96.76879275,20279.91742319357,13181.95
Commercial on Weston Way,commercial,"Dallas County, Texas",Weston Way,32.94065495202717,-96.76695029,32834.342260798745,21342.32
Commercial on West Spring Valley Road,commercial,"Dallas County, Texas",West Spring Valley Road,32.940862169894594,-96.76813096,22720.83558086607,14768.54
Commercial on Woodwick Drive,commercial,"Dallas County, Texas",Woodwick Drive,32.934836819010464,-96.74622509,36542.65835191983,23752.73
Commercial on Floyd Circle,commercial,"Dallas County, Texas",Floyd Circle,32.933154324318764,-96.74678702,21819.82098340104,14182.88
Commercial on South Sherman Street,commercial,"Dallas County, Texas",South Sherman Street,32.93438341435192,-96.74629102,37460.55143516921,24349.36
Warehouse on Wall Street,warehouse,"Dallas County, Texas",Wall Street,32.76962282661708,-96.79447107,27190.40590896509,17673.76
Commercial on Belleview Street,commercial,"Dallas County, Texas",Belleview Street,32.768623833248235,-96.7942612,40855.46437257802,26556.05
Commercial on Cockrell Avenue,commercial,"Dallas County, Texas",Cockrell Avenue,32.766812619363364,-96.79374164,23648.70667875852,15371.66
Warehouse on Mc Kee Street,warehouse,"Dallas County, Texas",Mc Kee Street,32.76633543483643,-96.7922869,56095.13275022906,36461.84
Commercial on Botham Jean Boulevard,commercial,"Dallas County, Texas",Botham Jean Boulevard,32.76629458245008,-96.79406711,24342.02701542934,15822.32
Warehouse on Botham Jean Boulevard,warehouse,"Dallas County, Texas",Botham Jean Boulevard,32.76491878,-96.79189525,104669.09699471432,68034.91
Commercial on South Lamesa Street,commercial,"Dallas County, Texas",South Lamesa Street,32.763052257944175,-96.78909201,38409.347840316346,24966.08
Commercial on Rawlins Street,commercial,"Dallas County, Texas",Rawlins Street,32.81066018842319,-96.80565328,25302.477298567672,16446.61
Commercial on Lee Parkway,commercial,"Dallas County, Texas",Lee Parkway,32.80936646423563,-96.8052804,21392.171101873577,13904.91
Retail on Roswell Street,retail,"Dallas County, Texas",Roswell Street,32.81074881337044,-96.81039261,39700.761610531415,25805.5
Park Heritage,office,"Dallas County, Texas",Maple Avenue,32.80276706171407,-96.81198423,21548.76571888688,14006.7
CityMark at Katy Trail,office,"Dallas County, Texas",McKinnon Street,32.79839183481222,-96.81136871,25380.495876163783,16497.32
Office on McKinney Avenue,office,"Dallas County, Texas",McKinney Avenue,32.79165460414264,-96.80249228,25745.040027151324,16734.28
Walmart Neighborhood Market,retail,"Dallas County, Texas",North Central Expressway,32.800656718494594,-96.79413009,44545.1759823906,28954.36
Commercial on North Central Expressway,commercial,"Dallas County, Texas",North Central Expressway,32.814836900788464,-96.79063827,21329.510486901338,13864.18
Commercial on Knox Street,commercial,"Dallas County, Texas",Knox Street,32.82123328489644,-96.78725466,27081.85725732068,17603.21
Warehouse on McKinney Avenue,warehouse,"Dallas County, Texas",McKinney Avenue,32.8275459,-96.78420085,33311.32267274878,21652.36
Commercial on McKinney Avenue,commercial,"Dallas County, Texas",McKinney Avenue,32.829180497967705,-96.7832489,29966.822632256342,19478.43
Commercial on North Central Expressway,commercial,"Dallas County, Texas",North Central Expressway,32.831962584581184,-96.78131585,23928.89167429044,15553.78
Retail on Mockingbird Lane,retail,"Dallas County, Texas",Mockingbird Lane,32.837261758432994,-96.78052775,77340.62582147642,50271.41
Commercial on Caruth Haven Lane,commercial,"Dallas County, Texas",Caruth Haven Lane,32.86009839454937,-96.77125442,46398.03236999088,30158.72
Caruth Haven Court Assisted Living,commercial,"Dallas County, Texas",Caruth Haven Lane,32.861530158339995,-96.77120513,28997.780574470024,18848.56
Commercial on McKinney Avenue,commercial,"Dallas County, Texas",McKinney Avenue,32.80905632983563,-96.79507375,23303.352576792586,15147.18
Commercial on Noble Avenue,commercial,"Dallas County, Texas",Noble Avenue,32.80730371428664,-96.79663386,31717.15657365137,20616.15
Commercial on Cityplace West Boulevard,commercial,"Dallas County, Texas",Cityplace West Boulevard,32.80779346067461,-96.79623446,26856.680438154664,17456.84
SampleHouse,industrial,"Dallas County, Texas",Bengal Street,32.81131987663375,-96.82958447,36593.21296347054,23785.59
Commercial on Blackburn Street,commercial,"Dallas County, Texas",Blackburn Street,32.81478660986756,-96.80088605,21296.655038503483,13842.83
Commercial on Blackburn Street,commercial,"Dallas County, Texas",Blackburn Street,32.81498139986416,-96.80179987,20397.01425562252,13258.06
Industrial on Irving Avenue,industrial,"Dallas County, Texas",Irving Avenue,32.816583023574616,-96.80408791,22481.515199063266,14612.98
Commercial on Westchester Drive,commercial,"Dallas County, Texas",Westchester Drive,32.86145409908704,-96.80715427,31089.57160926632,20208.22
Equinox,retail,"Dallas County, Texas",Newton Avenue,32.81822109410406,-96.8028614,37491.4887,24369.47
Commercial on Preston Road,commercial,"Dallas County, Texas",Preston Road,32.86097536613223,-96.8060524,24311.52725384724,15802.49
Fry's Electronics,retail,"Dallas County, Texas",Executive Drive,32.86796125,-96.67726729,159281.72,103533.12
Commercial on Preston Road,commercial,"Dallas County, Texas",Preston Road,32.893301328598184,-96.80324195,27746.099640332803,18034.96
Retail on West Northwest Highway,retail,"Dallas County, Texas",West Northwest Highway,32.86618298,-96.78824218,24972.81853809892,16232.33
Whole Foods Market,commercial,"Dallas County, Texas",Lomo Alto Drive,32.82046223823409,-96.81444695,32779.72328,21306.82
Retail on Lemmon Avenue,retail,"Dallas County, Texas",Lemmon Avenue,32.815589577952224,-96.80935168,26986.698630424627,17541.35
Retail on Knight Street,retail,"Dallas County, Texas",Knight Street,32.814793604127225,-96.80976506,22971.87358598025,14931.72
Retail on Oak Lawn Avenue,retail,"Dallas County, Texas",Oak Lawn Avenue,32.82070246673952,-96.80199058,50409.05753526862,32765.89
Commercial on Oak Lawn Avenue,commercial,"Dallas County, Texas",Oak Lawn Avenue,32.82096356325015,-96.80291988,26390.20053356539,17153.63
Commercial on Reagan Street,commercial,"Dallas County, Texas",Reagan Street,32.80676508324742,-96.8158363,51299.26517151209,33344.52
Retail on Lovers Lane,retail,"Dallas County, Texas",Lovers Lane,32.85149282444737,-96.8113265,25936.60554813468,16858.79
Retail on Lovers Lane,retail,"Dallas County, Texas",Lovers Lane,32.851492353377935,-96.8098536,42929.28243672103,27904.03
Commercial on Cole Avenue,commercial,"Dallas County, Texas",Cole Avenue,32.82690101671922,-96.78748914,21773.34793810803,14152.68
Retail on Preston Road,retail,"Dallas County, Texas",Preston Road,32.84971626630774,-96.80458321,26320.756721467,17108.49
SiriusXM Connected Vehicle Services Inc.,office,"Dallas County, Texas",Freeport Parkway,32.92345053,-97.01512928,58289.54586823418,37888.2
Retail on Lovers Lane,retail,"Dallas County, Texas",Lovers Lane,32.85087997919858,-96.80962588,26481.202423389183,17212.78
Retail on Lovers Lane,retail,"Dallas County, Texas",Lovers Lane,32.85089479011693,-96.81120079,23058.27526743044,14987.88
Addison Circle One,office,"Dallas County, Texas",Dallas Parkway,32.96179390402077,-96.82225162,29981.46500407971,19487.95
TWO Addison Circle,office,"Dallas County, Texas",Dallas Parkway,32.96278229875571,-96.82233024,37259.69209099927,24218.8
Warehouse on Marquis Drive,warehouse,"Dallas County, Texas",Marquis Drive,32.9017158,-96.67261829,114068.68818893372,74144.65
Industrial on South Shiloh Road,industrial,"Dallas County, Texas",South Shiloh Road,32.90287277864904,-96.66643495,231809.25492666088,150676.02
Warehouse on Nicholson Road,warehouse,"Dallas County, Texas",Nicholson Road,32.90473153740332,-96.66803181,106831.7265745168,69440.62
Warehouse on Nicholson Road,warehouse,"Dallas County, Texas",Nicholson Road,32.903289924538655,-96.66802456,67274.68417,43728.54
Warehouse on Nicholson Road,warehouse,"Dallas County, Texas",Nicholson Road,32.90614836812141,-96.66797184,58327.53337105326,37912.9
Warehouse on Marquis Drive,warehouse,"Dallas County, Texas",Marquis Drive,32.90167894,-96.67036208,62745.96821672312,40784.88
Kohl's,retail,"Dallas County, Texas",South Carrier Parkway,32.67809273507534,-97.00496679,87129.98012443286,56634.49
Simmons Ambulatory Surgery Center,commercial,"Dallas County, Texas",Harry Hines Boulevard,32.80998483014447,-96.83352848,39902.51322772876,25936.63
Commercial on White Rock Creek Trail,commercial,"Dallas County, Texas",White Rock Creek Trail,32.90541704959649,-96.76735571,30533.101873983604,19846.52
The Home Depot,retail,"Dallas County, Texas",North Coit Road,32.98226628700531,-96.76543811,121516.2966261876,78985.59
Addison Post Office,commercial,"Dallas County, Texas",Airport Parkway,32.96552633058969,-96.82794025,23605.119649291155,15343.33
United States Post Office,commercial,"Dallas County, Texas",East Jackson Road,32.97505158980755,-96.88636303,34640.64997290183,22516.42
Coppell Post Office,commercial,"Dallas County, Texas",South Denton Tap Road,32.95972810884898,-96.99260902,23636.17955525458,15363.52
Garland Post Office - North Station,commercial,"Dallas County, Texas",Belt Line Road,32.94399382500289,-96.66355067,32571.936396017707,21171.76
Office Depot,commercial,"Dallas County, Texas",Greenville Avenue,32.84936091046451,-96.77088886,31008.725879880545,20155.67
Commercial on North Central Expressway,commercial,"Dallas County, Texas",North Central Expressway,32.85005277108834,-96.77071294,21465.22554322943,13952.4
Commercial on West Mockingbird Lane,commercial,"Dallas County, Texas",West Mockingbird Lane,32.83590587576587,-96.82874199,62725.60767,40771.64
United States Post Office,commercial,"Dallas County, Texas",Josey Lane,32.93471576516902,-96.88846517,22562.154168450907,14665.4
17Seventeen,commercial,"Dallas County, Texas",McKinney Avenue,32.78836834032912,-96.80462241,29132.60820828579,18936.2
Commercial on Edison Street,commercial,"Dallas County, Texas",Edison Street,32.79406091085627,-96.81733278,74670.51063,48535.83
Office on Slocum Street,office,"Dallas County, Texas",Slocum Street,32.79443318177027,-96.81780036,20933.81778899099,13606.98
Commercial on Oak Lawn Avenue,commercial,"Dallas County, Texas",Oak Lawn Avenue,32.79367385946827,-96.8202236,37979.01367155161,24686.36
Commercial on Oak Lawn Avenue,commercial,"Dallas County, Texas",Oak Lawn Avenue,32.79419416013305,-96.81927302,31337.49093984292,20369.37
Commercial on Oak Lawn Avenue,commercial,"Dallas County, Texas",Oak Lawn Avenue,32.794764161830805,-96.82035306,38437.762480402605,24984.55
Albertsons,retail,"Dallas County, Texas",Broadway Boulevard,32.846095100641016,-96.59393177,63262.89451863996,41120.88
Office on Royal Ridge Parkway,office,"Dallas County, Texas",Royal Ridge Parkway,32.91784166097682,-96.99605681,45695.14371803396,29701.84
Commercial on Bent Branch Drive,commercial,"Dallas County, Texas",Bent Branch Drive,32.918648295704365,-96.99074169,253381.67964566665,164698.09
Office on North Belt Line Road,office,"Dallas County, Texas",North Belt Line Road,32.91809326152548,-96.99295032,68408.48429811382,44465.51
Office on Royal Crossing,office,"Dallas County, Texas",Royal Crossing,32.919583552197864,-96.99776515,81388.25728964609,52902.37
Office on North Belt Line Road,office,"Dallas County, Texas",North Belt Line Road,32.917342196332456,-96.99453548,46251.11207182682,30063.22
Retail on Regent Boulevard,retail,"Dallas County, Texas",Regent Boulevard,32.921315461887296,-96.99604625,30459.16033736208,19798.45
Office on Royal Ridge Parkway,office,"Dallas County, Texas",Royal Ridge Parkway,32.91707233955161,-96.99599582,23035.239223412133,14972.91
Retail on West Pleasant Run Road,retail,"Dallas County, Texas",West Pleasant Run Road,32.60318958298591,-96.82005182,39281.474517283634,25532.96
Sam's Club,retail,"Dallas County, Texas",South Buckner Boulevard,32.79382955,-96.68705401,143932.80413299502,93556.32
Museum of Biblical Art,commercial,"Dallas County, Texas",Park Lane,32.87050536867382,-96.7771655,34280.126376014814,22282.08
Retail on Snider Plaza,retail,"Dallas County, Texas",Snider Plaza,32.84891078319877,-96.78753929,22583.752647174617,14679.44
Commercial on Snider Plaza,commercial,"Dallas County, Texas",Snider Plaza,32.84891266166593,-96.78823905,23452.319761423496,15244.01
Commercial on Boll Street,commercial,"Dallas County, Texas",Boll Street,32.79862197035855,-96.80244733,38436.24256896314,24983.56
CoreSpace Dallas,commercial,"Dallas County, Texas",John W Carpenter Freeway,32.81755909168842,-96.87306493,31618.645817061886,20552.12
Retail on Coit Road,retail,"Dallas County, Texas",Coit Road,32.98137146,-96.76996411,31757.745366810635,20642.53
Lennox,office,"Dallas County, Texas",Lake Park Boulevard,32.98051259495122,-96.76043218,46901.36750728891,30485.89
Retail on East Mockingbird Lane,retail,"Dallas County, Texas",East Mockingbird Lane,32.83778193448419,-96.7510632,141394.89640550563,91906.68
Commercial on East Mockingbird Lane,commercial,"Dallas County, Texas",East Mockingbird Lane,32.83696122178645,-96.75165328,42173.37089663445,27412.69
Commercial on East Mockingbird Lane,commercial,"Dallas County, Texas",East Mockingbird Lane,32.83583890496734,-96.75413114,39584.99407124491,25730.25
Lute Riley Honda,commercial,"Dallas County, Texas",North Central Expressway,32.96626292047502,-96.72376581,36453.272941345815,23694.63
Commercial on North Denton Tap Road,commercial,"Dallas County, Texas",North Denton Tap Road,32.98871684956863,-96.99265884,20980.88424,13637.57
Lowe's,retail,"Dallas County, Texas",North Galloway Avenue,32.82588212247576,-96.62119603,168700.6348309022,109655.41
Commercial on West Campbell Road,commercial,"Dallas County, Texas",West Campbell Road,32.974835288698586,-96.72025198,21961.6068837858,14275.04
Retail on Shady Brook Lane,retail,"Dallas County, Texas",Shady Brook Lane,32.87076045042527,-96.7631909,43279.34974037137,28131.58
Commercial on North Central Expressway,commercial,"Dallas County, Texas",North Central Expressway,32.98451343267456,-96.71320284,20138.612714798204,13090.1
Commercial on North Collins Boulevard,commercial,"Dallas County, Texas",North Collins Boulevard,32.98217184407565,-96.71621192,49198.5618324296,31979.07
Waste Management,commercial,"Dallas County, Texas",North Business 45,32.55175951403017,-96.66745763,24840.718502984902,16146.47
Commercial on Golfing Green Drive,commercial,"Dallas County, Texas",Golfing Green Drive,32.93331007006475,-96.86258334,64776.64811847171,42104.82
Bank of America Building,commercial,"Dallas County, Texas",South State Highway 161,32.74046705511528,-97.01873084,21130.95393885852,13735.12
Target,retail,"Dallas County, Texas",West Interstate 20,32.67834759810049,-97.01006307,122437.39362070274,79584.31
The Home Depot,retail,"Dallas County, Texas",South Carrier Parkway,32.67878895339449,-97.00882458,118147.14263907532,76795.64
El Rio Grande Supermarket,retail,"Dallas County, Texas",South Center Street,32.74383747347588,-97.00386514,33746.65204237616,21935.32
Retail on South Carrier Parkway,retail,"Dallas County, Texas",South Carrier Parkway,32.74030006989876,-97.01692559,48066.40901776336,31243.17
Retail on Conover Drive,retail,"Dallas County, Texas",Conover Drive,32.73914308936122,-97.01698455,45444.04742815518,29538.63
Army Navy Warehouse,retail,"Dallas County, Texas",East Main Street,32.74608394966341,-97.0009399,20390.54872818294,13253.86
Retail on Crossland Boulevard,retail,"Dallas County, Texas",Crossland Boulevard,32.680167250000004,-97.0076945,20404.370008073725,13262.84
Grand Prairie PREMIERE LUX Ciné 10 & Pizza Pub,retail,"Dallas County, Texas",East Westchester Parkway,32.67272034887958,-97.00382525,40473.293278452606,26307.64
Wingfoot Dallas,warehouse,"Dallas County, Texas",Irving Boulevard,32.8070878,-96.86660656,57427.77729940779,37328.06
Commercial on Peterbilt Avenue,commercial,"Dallas County, Texas",Peterbilt Avenue,32.64298318161006,-96.78427465,22157.01682184041,14402.06
Retail on Wycliff Avenue,retail,"Dallas County, Texas",Wycliff Avenue,32.81047815302538,-96.81974094,20861.618148599147,13560.05
Office on Douglas Avenue,office,"Dallas County, Texas",Douglas Avenue,32.864485238742944,-96.80893653,22583.18591,14679.07
Industrial on Celestial Road,industrial,"Dallas County, Texas",Celestial Road,32.94632126688855,-96.81288082,35142.18576983912,22842.42
Retail on East FM 1382,retail,"Dallas County, Texas",East FM 1382,32.59925550286619,-96.94013977,79632.76052,51761.29
Kroger,retail,"Dallas County, Texas",North Highway 67,32.598480399506926,-96.93950304,70656.74202479766,45926.88
Retail on West FM 1382,retail,"Dallas County, Texas",West FM 1382,32.599790100923734,-96.94148998,29927.17402687181,19452.66
Commercial on West FM 1382,commercial,"Dallas County, Texas",West FM 1382,32.60165888,-96.94263039,115677.37618886124,75190.29
Retail on West Pleasant Run Road,retail,"Dallas County, Texas",West Pleasant Run Road,32.60233758960117,-96.9436332,20384.667591525675,13250.03
Commercial on West Pleasant Run Road,commercial,"Dallas County, Texas",West Pleasant Run Road,32.60265450753166,-96.94279192,34271.19825203814,22276.28
Commercial on West Pleasant Run Road,commercial,"Dallas County, Texas",West Pleasant Run Road,32.602177097009545,-96.94148805,35127.66842199469,22832.98
Commercial on East Pleasant Run Road,commercial,"Dallas County, Texas",East Pleasant Run Road,32.602124673345024,-96.94046433,32156.479805477207,20901.71
Commercial on East Pleasant Run Road,commercial,"Dallas County, Texas",East Pleasant Run Road,32.60282945456409,-96.94111917,29452.459840551724,19144.1
Commercial on West Pleasant Run Road,commercial,"Dallas County, Texas",West Pleasant Run Road,32.603378579874764,-96.94242695,44165.82438797016,28707.79
Commercial on West Pleasant Run Road,commercial,"Dallas County, Texas",West Pleasant Run Road,32.603213456634215,-96.94354286,31349.55575640307,20377.21
Commercial on West Wheatland Road,commercial,"Dallas County, Texas",West Wheatland Road,32.64955241046904,-96.87247731,223536.8197043409,145298.93
Retail on Kirnwood Drive,retail,"Dallas County, Texas",Kirnwood Drive,32.64821662062256,-96.87016647,28490.492373187084,18518.82
The Home Depot,commercial,"Dallas County, Texas",West Wheatland Road,32.64838798534337,-96.86903658,110725.52210246124,71971.59
Commercial on Southwest 5th Street,commercial,"Dallas County, Texas",Southwest 5th Street,32.743163411260895,-97.00932737,24969.038139767355,16229.87
Retail on Gaston Avenue,retail,"Dallas County, Texas",Gaston Avenue,32.81313622284153,-96.72998376,63672.82928531589,41387.34
Commercial on Gaston Avenue,commercial,"Dallas County, Texas",Gaston Avenue,32.81227516031393,-96.72977812,21843.31684,14198.16
The Home Depot,retail,"Dallas County, Texas",East FM 1382,32.59405850349146,-96.93599417,114131.0160815126,74185.16
Retail on East FM 1382,retail,"Dallas County, Texas",East FM 1382,32.59312918198524,-96.93522545,63544.44083000222,41303.89
Total Wine,retail,"Dallas County, Texas",East FM 1382,32.59091116190356,-96.93819529,35284.21777,22934.74
Habitat for Humanity ReStore,retail,"Dallas County, Texas",North Hampton Road,32.77737787449663,-96.85559888,137343.91465328715,89273.54
Macy's,retail,"Dallas County, Texas",Cedar Sage Drive,32.952044700000016,-96.60926945,69868.11602,45414.28
Dillard's,retail,"Dallas County, Texas",Horseshoe Drive,32.954782291858336,-96.61483901,99988.3669,64992.44
Retail on North Highway 67,retail,"Dallas County, Texas",North Highway 67,32.601059800048496,-96.9371558,23294.34956503496,15141.33
Commercial on North Highway 67,commercial,"Dallas County, Texas",North Highway 67,32.60590397511977,-96.9312216,30664.10869817764,19931.67
Commercial on Antoine Street,commercial,"Dallas County, Texas",Antoine Street,32.60593912038253,-96.93220005,20187.34714714488,13121.78
Commercial on East Pleasant Run Road,commercial,"Dallas County, Texas",East Pleasant Run Road,32.603828067845896,-96.93458734,22495.382411311683,14622.0
Retail on North Highway 67,retail,"Dallas County, Texas",North Highway 67,32.59259240653191,-96.94077068,116144.04904757044,75493.63
Retail on North Highway 67,retail,"Dallas County, Texas",North Highway 67,32.59606802762163,-96.93613574,135502.32933415176,88076.51
Commercial on West FM 1382,commercial,"Dallas County, Texas",West FM 1382,32.59926120232301,-96.94404433,28361.955613437647,18435.27
Commercial on Cedar Hill Village Drive,commercial,"Dallas County, Texas",Cedar Hill Village Drive,32.591991051253785,-96.94651888,43331.97572275151,28165.78
Commercial on South Central Expressway,commercial,"Dallas County, Texas",South Central Expressway,32.70108702070564,-96.74926318,27606.182349258743,17944.02
Warehouse on La Reunion Parkway,warehouse,"Dallas County, Texas",La Reunion Parkway,32.77054537368456,-96.8925722,64669.95160710737,42035.47
Warehouse on Terre Colony Court,warehouse,"Dallas County, Texas",Terre Colony Court,32.77266874482653,-96.86636057,78867.26259559549,51263.72
Warehouse on La Reunion Parkway,warehouse,"Dallas County, Texas",La Reunion Parkway,32.77042622,-96.8938677,61355.27014216191,39880.93
Warehouse on Terre Colony Court,warehouse,"Dallas County, Texas",Terre Colony Court,32.77229114652785,-96.86713875,138594.99653947272,90086.75
Warehouse on Adler Drive,warehouse,"Dallas County, Texas",Adler Drive,32.76576006472202,-96.88913739,357830.57581834926,232589.87
Warehouse on Terre Colony Court,warehouse,"Dallas County, Texas",Terre Colony Court,32.771315017733734,-96.86678354,25885.98996333419,16825.89
Warehouse on Postal Way,warehouse,"Dallas County, Texas",Postal Way,32.770490996372466,-96.86370177,27007.37790082865,17554.8
Warehouse on La Reunion Parkway,warehouse,"Dallas County, Texas",La Reunion Parkway,32.76975573353327,-96.89268467,67922.94692933647,44149.92
Warehouse on La Reunion Parkway,warehouse,"Dallas County, Texas",La Reunion Parkway,32.77029896631628,-96.89012718,117012.08614444992,76057.86
Warehouse on West Commerce Street,warehouse,"Dallas County, Texas",West Commerce Street,32.77359380699592,-96.87043346,130706.569719089,84959.27
Warehouse on West Commerce Street,warehouse,"Dallas County, Texas",West Commerce Street,32.772069649881566,-96.86132375,30319.31720846517,19707.56
FedEx Ground,warehouse,"Dallas County, Texas",Adler Drive,32.765822192703794,-96.88664578,361304.3072030789,234847.8
Warehouse on North Westmoreland Road,warehouse,"Dallas County, Texas",North Westmoreland Road,32.77393164855947,-96.87295635,257493.85451136227,167371.01
Warehouse on Terre Colony Court,warehouse,"Dallas County, Texas",Terre Colony Court,32.772102210948304,-96.86879931,111092.91137549446,72210.39
Warehouse on Lone Star Drive,warehouse,"Dallas County, Texas",Lone Star Drive,32.77075587238944,-96.87128824,113227.9002968532,73598.14
Warehouse on West Commerce Street,warehouse,"Dallas County, Texas",West Commerce Street,32.77395231479264,-96.87194013,261932.9607794648,170256.42
Kroger,retail,"Dallas County, Texas",North Belt Line Road,32.855107331559736,-96.99087583,69521.73379662645,45189.13
Commercial on Riverside Drive,commercial,"Dallas County, Texas",Riverside Drive,32.88966524582422,-96.934706,29831.21543802097,19390.29
Warehouse on Riverside Drive,warehouse,"Dallas County, Texas",Riverside Drive,32.89125621419675,-96.93404574,54477.90427859269,35410.64
Commercial on West Camp Wisdom Road,commercial,"Dallas County, Texas",West Camp Wisdom Road,32.663497449664554,-96.87327358,50883.09151982111,33074.01
Commercial on Marvin D Love Freeway,commercial,"Dallas County, Texas",Marvin D Love Freeway,32.663616825949404,-96.87101324,127655.0475689394,82975.78
Commercial on West Camp Wisdom Road,commercial,"Dallas County, Texas",West Camp Wisdom Road,32.66270707557787,-96.8708829,21580.7467373518,14027.49
Planet Fitness,commercial,"Dallas County, Texas",West Camp Wisdom Road,32.66139937805241,-96.87286535,41311.36588963887,26852.39
Commercial on Uptown Boulevard,commercial,"Dallas County, Texas",Uptown Boulevard,32.59545216628971,-96.94470105,36090.55532,23458.86
Commercial on North Highway 67,commercial,"Dallas County, Texas",North Highway 67,32.594567310879924,-96.94431175,43237.89778982964,28104.63
Retail on West Wheatland Road,retail,"Dallas County, Texas",West Wheatland Road,32.648934967733275,-96.88534217,47342.63556191954,30772.71
Warehouse on South Cockrell Hill Road,warehouse,"Dallas County, Texas",South Cockrell Hill Road,32.64880044812489,-96.89074195,23725.677243420207,15421.69
Retail on West Pioneer Parkway,retail,"Dallas County, Texas",West Pioneer Parkway,32.70871035014073,-97.0111004,50487.80689869194,32817.07
Retail on South Cedar Ridge Drive,retail,"Dallas County, Texas",South Cedar Ridge Drive,32.64810031,-96.92667223,33218.323732310375,21591.91
Commercial on North Central Expressway,commercial,"Dallas County, Texas",North Central Expressway,32.87025803641637,-96.76943031,32262.73667619457,20970.78
Industrial on Valley View Lane,industrial,"Dallas County, Texas",Valley View Lane,32.83077207474026,-97.02826933,420996.7836456293,273647.91
Retail on West Northgate Drive,retail,"Dallas County, Texas",West Northgate Drive,32.85777332532655,-96.99281522,20546.67028252274,13355.34
Retail on North Belt Line Road,retail,"Dallas County, Texas",North Belt Line Road,32.85635944,-96.992917,25509.816230703203,16581.38
Industrial on Peters Street,industrial,"Dallas County, Texas",Peters Street,32.77182150501037,-96.79503963,24417.869189881727,15871.61
Commercial on South Austin Street,commercial,"Dallas County, Texas",South Austin Street,32.76935885,-96.7988609,33823.52166293274,21985.29
Commercial on Botham Jean Boulevard,commercial,"Dallas County, Texas",Botham Jean Boulevard,32.76869196163883,-96.79786315,105016.47875389372,68260.71
Commercial on Gould Street,commercial,"Dallas County, Texas",Gould Street,32.76949555215177,-96.79127637,53238.994063208105,34605.35
Warehouse on South Harwood Street,warehouse,"Dallas County, Texas",South Harwood Street,32.77292988038857,-96.78501909,23029.82156697841,14969.38
Warehouse on South Harwood Street,warehouse,"Dallas County, Texas",South Harwood Street,32.77389725517752,-96.78553419,20747.43579657692,13485.83
Warehouse on South César Chávez Boulevard,warehouse,"Dallas County, Texas",South César Chávez Boulevard,32.77324492828101,-96.78227398,25763.957966461086,16746.57
Warehouse on South Good-Latimer Expressway,warehouse,"Dallas County, Texas",South Good-Latimer Expressway,32.77631590902309,-96.78296506,78882.94919434324,51273.92
Warehouse on Ferris Street,warehouse,"Dallas County, Texas",Ferris Street,32.77449475934932,-96.77960927,42095.76864250854,27362.25
Commercial on Pacific Avenue,commercial,"Dallas County, Texas",Pacific Avenue,32.78236827470726,-96.79679443,25544.43494544801,16603.88
One Arts Plaza,commercial,"Dallas County, Texas",Routh Street,32.791923508051994,-96.79514762,103922.32322395996,67549.51
Commercial on Nowitzki Way,commercial,"Dallas County, Texas",Nowitzki Way,32.789949917863126,-96.80858707,41065.97856760542,26692.89
Office on North Harwood Street,office,"Dallas County, Texas",North Harwood Street,32.79162981312452,-96.80617068,33787.824688356806,21962.09
2525 McKinnon,commercial,"Dallas County, Texas",McKinnon Street,32.79209226521689,-96.80564427,30527.577092713906,19842.93
The Factory in Deep Ellum,commercial,"Dallas County, Texas",Canton Street,32.78238638202588,-96.78374691,28605.902416597142,18593.84
Carrier Crossing,retail,"Dallas County, Texas",West Pioneer Parkway,32.70854484,-97.01711812,39441.74613987951,25637.13
Retail on West Pioneer Parkway,retail,"Dallas County, Texas",West Pioneer Parkway,32.708931759599295,-97.01314352,26967.74381938572,17529.03
Commercial on West Pioneer Parkway,commercial,"Dallas County, Texas",West Pioneer Parkway,32.71029687633002,-97.02131679,54755.07170141042,35590.8
Commercial on Fort Worth Street,commercial,"Dallas County, Texas",Fort Worth Street,32.742882326610854,-97.01780474,23115.88945240185,15025.33
Commercial on Family Circle,commercial,"Dallas County, Texas",Family Circle,32.71944389266191,-97.00532488,69756.55959633923,45341.76
Retail on Southwest 3rd Street,retail,"Dallas County, Texas",Southwest 3rd Street,32.714209178699804,-97.00644785,27196.57682367778,17677.77
Harwood No. 2,office,"Dallas County, Texas",North Harwood Street,32.79393683104876,-96.80758923,20218.315516848408,13141.91
Industrial on Sunnybrook Lane,industrial,"Dallas County, Texas",Sunnybrook Lane,32.73862914265856,-96.99740358,40938.120393088255,26609.78
Dollar Tree,retail,"Dallas County, Texas",Northeast 5th Street,32.74618589,-96.99854262,23643.918532365005,15368.55
Retail on Lively Lane,retail,"Dallas County, Texas",Lively Lane,32.741503994642336,-96.99534914,32931.09364965831,21405.21
Retail on Northeast 19th Street,retail,"Dallas County, Texas",Northeast 19th Street,32.75058912481099,-96.97869379,45341.33177701863,29471.87
Commercial on Alice Drive,commercial,"Dallas County, Texas",Alice Drive,32.73607425000001,-97.00678835,23268.934723662565,15124.81
Commercial on North Central Expressway,commercial,"Dallas County, Texas",North Central Expressway,32.963943823277546,-96.72586874,24198.690016501936,15729.15
Retail on West Sandy Lake Road,retail,"Dallas County, Texas",West Sandy Lake Road,32.97060180505483,-96.99529901,67560.14211412378,43914.09
Office on Walnut Hill Lane,office,"Dallas County, Texas",Walnut Hill Lane,32.882215276639826,-96.75895415,22500.62084292197,14625.4
Jackson Building,commercial,"Dallas County, Texas",Walnut Hill Lane,32.8800871,-96.76373546,32534.826414050305,21147.64
Walnut Glen Tower,office,"Dallas County, Texas",Walnut Hill Lane,32.88068756812076,-96.76643574,34640.17605561609,22516.11
Commercial on Belco Drive,commercial,"Dallas County, Texas",Belco Drive,32.88143071733469,-96.75726188,21525.06992388008,13991.3
Warehouse on Greenville Avenue,warehouse,"Dallas County, Texas",Greenville Avenue,32.884965030132456,-96.75761639,26269.19150649308,17074.97
Office on Wingren Road,office,"Dallas County, Texas",Wingren Road,32.86305803314075,-96.94134054,61238.63715,39805.11
Office on Goodson Drive,office,"Dallas County, Texas",Goodson Drive,32.863764601199705,-96.94113321,50854.56024470738,33055.46
Kroger,commercial,"Dallas County, Texas",West Camp Wisdom Road,32.66067511604285,-96.90924656,70199.01680018454,45629.36
Retail on West Camp Wisdom Road,retail,"Dallas County, Texas",West Camp Wisdom Road,32.661408587983274,-96.90784961,31134.747039469872,20237.59
Warehouse on South Harwood Street,warehouse,"Dallas County, Texas",South Harwood Street,32.773331751679926,-96.78357311,22885.46198367728,14875.55
Warehouse on South Good-Latimer Expressway,warehouse,"Dallas County, Texas",South Good-Latimer Expressway,32.77854306342827,-96.78495013,39975.20343412647,25983.88
Warehouse on South Ervay Street,warehouse,"Dallas County, Texas",South Ervay Street,32.77299155,-96.7920124,21277.02854458136,13830.07
Commercial on South Harwood Street,commercial,"Dallas County, Texas",South Harwood Street,32.77043437639497,-96.78245099,21937.605498340825,14259.44
Walmart Supercenter,commercial,"Dallas County, Texas",Cantabria Drive,32.95882314374017,-96.81613432,222687.83227351107,144747.09
Burlington,commercial,"Dallas County, Texas",Belt Line Road,32.956584818731145,-96.81579291,20046.107783485844,13029.97
Retail on Belt Line Road,retail,"Dallas County, Texas",Belt Line Road,32.954830439737606,-96.81744947,34157.05728621801,22202.09
Kroger,retail,"Dallas County, Texas",North Coit Road,32.953224882475574,-96.7673024,80303.25117137934,52197.11
Retail on Lockwood Drive,retail,"Dallas County, Texas",Lockwood Drive,32.95149807,-96.7375178,22381.83997335245,14548.2
Office on Tristar Drive,office,"Dallas County, Texas",Tristar Drive,32.91934682513255,-97.00552881,29857.864021381007,19407.61
Office on Tristar Drive,office,"Dallas County, Texas",Tristar Drive,32.91763599141837,-97.00570568,138922.9592138236,90299.92
Office on West Royal Lane,office,"Dallas County, Texas",West Royal Lane,32.920004646515345,-97.00424914,35292.65938515774,22940.23
Office on West Royal Lane,office,"Dallas County, Texas",West Royal Lane,32.92122808418978,-97.01120177,48970.27837082904,31830.68
Office on Esters Boulevard,office,"Dallas County, Texas",Esters Boulevard,32.92150871189745,-97.00695596,54482.99713668312,35413.95
Office on Esters Boulevard,office,"Dallas County, Texas",Esters Boulevard,32.92229161382677,-97.00720722,53430.51491186186,34729.83
Industrial on Exchange Street,industrial,"Dallas County, Texas",Exchange Street,32.924847811461426,-97.0094929,199911.5306900041,129942.49
Office on Esters Boulevard,office,"Dallas County, Texas",Esters Boulevard,32.92389312752295,-97.00701211,86395.80682660543,56157.27
Office on Tristar Drive,office,"Dallas County, Texas",Tristar Drive,32.919202934355006,-97.00439597,30999.576646403875,20149.72
Office on Esters Boulevard,office,"Dallas County, Texas",Esters Boulevard,32.92609505117817,-97.00783352,39565.29223005652,25717.44
Office on Tristar Drive,office,"Dallas County, Texas",Tristar Drive,32.91831139999999,-97.0041179,62154.44411082875,40400.39
Industrial on Regent Boulevard,industrial,"Dallas County, Texas",Regent Boulevard,32.92708331302055,-97.00705846,188927.4511873647,122802.84
Office on Tristar Drive,office,"Dallas County, Texas",Tristar Drive,32.914192150000005,-97.00417465,27446.232133602287,17840.05
Industrial on West John W Carpenter Freeway,industrial,"Dallas County, Texas",West John W Carpenter Freeway,32.915323664652654,-97.00484118,67426.60595437001,43827.29
Industrial on Esters Boulevard,industrial,"Dallas County, Texas",Esters Boulevard,32.92229329,-97.0092944,201076.46178522124,130699.7
Office on Horizon Way,office,"Dallas County, Texas",Horizon Way,32.92328817343223,-97.00591065,65057.78025591136,42287.56
Office on Tristar Drive,office,"Dallas County, Texas",Tristar Drive,32.916821547211406,-97.00434534,80214.22292,52139.24
Office on Regent Boulevard,office,"Dallas County, Texas",Regent Boulevard,32.92734090621467,-97.00614891,45101.51814654954,29315.99
Office on Sterling Street,office,"Dallas County, Texas",Sterling Street,32.921453433662414,-97.01239572,31829.358498632297,20689.08
Office on Freeport Parkway,office,"Dallas County, Texas",Freeport Parkway,32.92498895857528,-97.01241489,50692.228386993374,32949.95
Commercial on North Central Expressway,commercial,"Dallas County, Texas",North Central Expressway,32.971588265509425,-96.72016969,32761.90171788537,21295.24
Commercial on North Central Expressway,commercial,"Dallas County, Texas",North Central Expressway,32.97248621570013,-96.71988681,63000.47539385585,40950.31
Commercial on Municipal Drive,commercial,"Dallas County, Texas",Municipal Drive,32.9737074,-96.71975232,25169.58124704093,16360.23
Commercial on West Campbell Road,commercial,"Dallas County, Texas",West Campbell Road,32.97632540144953,-96.72081095,30483.719205161444,19814.42
Commercial on West Campbell Road,commercial,"Dallas County, Texas",West Campbell Road,32.97617528564015,-96.72281322,24706.146675714488,16059.0
Commercial on Alamo Road,commercial,"Dallas County, Texas",Alamo Road,32.977313455185424,-96.71655412,28502.490987355788,18526.62
Commercial on North Central Expressway,commercial,"Dallas County, Texas",North Central Expressway,32.978451279315394,-96.71642316,38890.07447162485,25278.55
Commercial on Lyndon B Johnson Freeway,commercial,"Dallas County, Texas",Lyndon B Johnson Freeway,32.657362614160654,-96.88927723,119703.40110311015,77807.21
